[
  {
    "locode": "CNSHA",
    "name": "Shanghai",
    "country": "China",
    "country_code": "CN",
    "lat": 31.2304,
    "lng": 121.4737,
    "port_type": "seaport",
    "size": "mega",
    "annual_teu": 47000000,
    "region": "East Asia",
    "timezone": "Asia/Shanghai"
  },
  {
    "locode": "CNNBO",
    "name": "Ningbo-Zhoushan",
    "country": "China",
    "country_code": "CN",
    "lat": 29.8683,
    "lng": 121.544,
    "port_type": "seaport",
    "size": "mega",
    "annual_teu": 33350000,
    "region": "East Asia",
    "timezone": "Asia/Shanghai"
  },
  {
    "locode": "CNSZN",
    "name": "Shenzhen (Yantian/Shekou/Chiwan)",
    "country": "China",
    "country_code": "CN",
    "lat": 22.5431,
    "lng": 114.0579,
    "port_type": "seaport",
    "size": "mega",
    "annual_teu": 30040000,
    "region": "East Asia",
    "timezone": "Asia/Shanghai"
  },
  {
    "locode": "CNNGB",
    "name": "Guangzhou (Nansha)",
    "country": "China",
    "country_code": "CN",
    "lat": 22.752,
    "lng": 113.599,
    "port_type": "seaport",
    "size": "mega",
    "annual_teu": 24180000,
    "region": "East Asia",
    "timezone": "Asia/Shanghai"
  },
  {
    "locode": "CNQDG",
    "name": "Qingdao",
    "country": "China",
    "country_code": "CN",
    "lat": 36.0671,
    "lng": 120.3826,
    "port_type": "seaport",
    "size": "mega",
    "annual_teu": 25670000,
    "region": "East Asia",
    "timezone": "Asia/Shanghai"
  },
  {
    "locode": "CNTXG",
    "name": "Tianjin (Xingang)",
    "country": "China",
    "country_code": "CN",
    "lat": 38.986,
    "lng": 117.734,
    "port_type": "seaport",
    "size": "mega",
    "annual_teu": 21000000,
    "region": "East Asia",
    "timezone": "Asia/Shanghai"
  },
  {
    "locode": "CNXMN",
    "name": "Xiamen",
    "country": "China",
    "country_code": "CN",
    "lat": 24.4798,
    "lng": 118.0894,
    "port_type": "seaport",
    "size": "mega",
    "annual_teu": 12080000,
    "region": "East Asia",
    "timezone": "Asia/Shanghai"
  },
  {
    "locode": "CNDLC",
    "name": "Dalian",
    "country": "China",
    "country_code": "CN",
    "lat": 38.914,
    "lng": 121.6147,
    "port_type": "seaport",
    "size": "large",
    "annual_teu": 8500000,
    "region": "East Asia",
    "timezone": "Asia/Shanghai"
  },
  {
    "locode": "CNLYG",
    "name": "Lianyungang",
    "country": "China",
    "country_code": "CN",
    "lat": 34.598,
    "lng": 119.2216,
    "port_type": "seaport",
    "size": "large",
    "annual_teu": 5200000,
    "region": "East Asia",
    "timezone": "Asia/Shanghai"
  },
  {
    "locode": "CNSUZ",
    "name": "Suzhou (Taicang)",
    "country": "China",
    "country_code": "CN",
    "lat": 31.4574,
    "lng": 121.1138,
    "port_type": "seaport",
    "size": "large",
    "annual_teu": 7500000,
    "region": "East Asia",
    "timezone": "Asia/Shanghai"
  },
  {
    "locode": "CNFOC",
    "name": "Fuzhou",
    "country": "China",
    "country_code": "CN",
    "lat": 26.0745,
    "lng": 119.2965,
    "port_type": "seaport",
    "size": "large",
    "annual_teu": 4200000,
    "region": "East Asia",
    "timezone": "Asia/Shanghai"
  },
  {
    "locode": "CNZJG",
    "name": "Zhanjiang",
    "country": "China",
    "country_code": "CN",
    "lat": 21.2707,
    "lng": 110.3594,
    "port_type": "seaport",
    "size": "medium",
    "annual_teu": 1500000,
    "region": "East Asia",
    "timezone": "Asia/Shanghai"
  },
  {
    "locode": "CNTAO",
    "name": "Rizhao",
    "country": "China",
    "country_code": "CN",
    "lat": 35.3847,
    "lng": 119.5269,
    "port_type": "seaport",
    "size": "medium",
    "annual_teu": 1800000,
    "region": "East Asia",
    "timezone": "Asia/Shanghai"
  },
  {
    "locode": "CNNTG",
    "name": "Nantong",
    "country": "China",
    "country_code": "CN",
    "lat": 31.9829,
    "lng": 120.8873,
    "port_type": "seaport",
    "size": "large",
    "annual_teu": 3200000,
    "region": "East Asia",
    "timezone": "Asia/Shanghai"
  },
  {
    "locode": "CNWNZ",
    "name": "Wenzhou",
    "country": "China",
    "country_code": "CN",
    "lat": 27.9939,
    "lng": 120.6993,
    "port_type": "seaport",
    "size": "medium",
    "annual_teu": 1100000,
    "region": "East Asia",
    "timezone": "Asia/Shanghai"
  },
  {
    "locode": "CNYTN",
    "name": "Yantai",
    "country": "China",
    "country_code": "CN",
    "lat": 37.4638,
    "lng": 121.448,
    "port_type": "seaport",
    "size": "medium",
    "annual_teu": 2800000,
    "region": "East Asia",
    "timezone": "Asia/Shanghai"
  },
  {
    "locode": "CNWHI",
    "name": "Weihai",
    "country": "China",
    "country_code": "CN",
    "lat": 37.5133,
    "lng": 122.1208,
    "port_type": "seaport",
    "size": "medium",
    "annual_teu": 800000,
    "region": "East Asia",
    "timezone": "Asia/Shanghai"
  },
  {
    "locode": "CNQZH",
    "name": "Quanzhou",
    "country": "China",
    "country_code": "CN",
    "lat": 24.9139,
    "lng": 118.586,
    "port_type": "seaport",
    "size": "medium",
    "annual_teu": 2100000,
    "region": "East Asia",
    "timezone": "Asia/Shanghai"
  },
  {
    "locode": "CNJNG",
    "name": "Jiangyin",
    "country": "China",
    "country_code": "CN",
    "lat": 31.9111,
    "lng": 120.2844,
    "port_type": "seaport",
    "size": "medium",
    "annual_teu": 1500000,
    "region": "East Asia",
    "timezone": "Asia/Shanghai"
  },
  {
    "locode": "CNZHE",
    "name": "Zhenjiang",
    "country": "China",
    "country_code": "CN",
    "lat": 32.1987,
    "lng": 119.4537,
    "port_type": "seaport",
    "size": "medium",
    "annual_teu": 900000,
    "region": "East Asia",
    "timezone": "Asia/Shanghai"
  },
  {
    "locode": "CNNKG",
    "name": "Nanjing",
    "country": "China",
    "country_code": "CN",
    "lat": 32.0603,
    "lng": 118.7969,
    "port_type": "seaport",
    "size": "large",
    "annual_teu": 3500000,
    "region": "East Asia",
    "timezone": "Asia/Shanghai"
  },
  {
    "locode": "CNWUH",
    "name": "Wuhan",
    "country": "China",
    "country_code": "CN",
    "lat": 30.5928,
    "lng": 114.3055,
    "port_type": "seaport",
    "size": "medium",
    "annual_teu": 2400000,
    "region": "East Asia",
    "timezone": "Asia/Shanghai"
  },
  {
    "locode": "CNCKG",
    "name": "Chongqing",
    "country": "China",
    "country_code": "CN",
    "lat": 29.563,
    "lng": 106.5516,
    "port_type": "seaport",
    "size": "medium",
    "annual_teu": 1800000,
    "region": "East Asia",
    "timezone": "Asia/Shanghai"
  },
  {
    "locode": "CNHAK",
    "name": "Haikou",
    "country": "China",
    "country_code": "CN",
    "lat": 20.0174,
    "lng": 110.3496,
    "port_type": "seaport",
    "size": "medium",
    "annual_teu": 2600000,
    "region": "East Asia",
    "timezone": "Asia/Shanghai"
  },
  {
    "locode": "CNYIC",
    "name": "Yingkou",
    "country": "China",
    "country_code": "CN",
    "lat": 40.668,
    "lng": 122.234,
    "port_type": "seaport",
    "size": "medium",
    "annual_teu": 2400000,
    "region": "East Asia",
    "timezone": "Asia/Shanghai"
  },
  {
    "locode": "CNHDG",
    "name": "Dandong",
    "country": "China",
    "country_code": "CN",
    "lat": 39.9367,
    "lng": 124.383,
    "port_type": "seaport",
    "size": "small",
    "annual_teu": 400000,
    "region": "East Asia",
    "timezone": "Asia/Shanghai"
  },
  {
    "locode": "CNQIN",
    "name": "Qinhuangdao",
    "country": "China",
    "country_code": "CN",
    "lat": 39.9354,
    "lng": 119.6005,
    "port_type": "seaport",
    "size": "medium",
    "annual_teu": 600000,
    "region": "East Asia",
    "timezone": "Asia/Shanghai"
  },
  {
    "locode": "CNTSN",
    "name": "Tangshan (Caofeidian)",
    "country": "China",
    "country_code": "CN",
    "lat": 39.2212,
    "lng": 118.6147,
    "port_type": "seaport",
    "size": "large",
    "annual_teu": 3200000,
    "region": "East Asia",
    "timezone": "Asia/Shanghai"
  },
  {
    "locode": "CNHUZ",
    "name": "Huizhou",
    "country": "China",
    "country_code": "CN",
    "lat": 22.7964,
    "lng": 114.3897,
    "port_type": "seaport",
    "size": "small",
    "annual_teu": 300000,
    "region": "East Asia",
    "timezone": "Asia/Shanghai"
  },
  {
    "locode": "CNSHA2",
    "name": "Shantou",
    "country": "China",
    "country_code": "CN",
    "lat": 23.3535,
    "lng": 116.6817,
    "port_type": "seaport",
    "size": "medium",
    "annual_teu": 1400000,
    "region": "East Asia",
    "timezone": "Asia/Shanghai"
  },
  {
    "locode": "CNZHH",
    "name": "Zhuhai",
    "country": "China",
    "country_code": "CN",
    "lat": 22.271,
    "lng": 113.5767,
    "port_type": "seaport",
    "size": "medium",
    "annual_teu": 1000000,
    "region": "East Asia",
    "timezone": "Asia/Shanghai"
  },
  {
    "locode": "CNFNG",
    "name": "Fangchenggang",
    "country": "China",
    "country_code": "CN",
    "lat": 21.6875,
    "lng": 108.3586,
    "port_type": "seaport",
    "size": "medium",
    "annual_teu": 800000,
    "region": "East Asia",
    "timezone": "Asia/Shanghai"
  },
  {
    "locode": "CNBHY",
    "name": "Beihai",
    "country": "China",
    "country_code": "CN",
    "lat": 21.4811,
    "lng": 109.12,
    "port_type": "seaport",
    "size": "small",
    "annual_teu": 200000,
    "region": "East Asia",
    "timezone": "Asia/Shanghai"
  },
  {
    "locode": "CNJIU",
    "name": "Jiujiang",
    "country": "China",
    "country_code": "CN",
    "lat": 29.705,
    "lng": 116.0015,
    "port_type": "seaport",
    "size": "small",
    "annual_teu": 500000,
    "region": "East Asia",
    "timezone": "Asia/Shanghai"
  },
  {
    "locode": "CNTZH",
    "name": "Taizhou",
    "country": "China",
    "country_code": "CN",
    "lat": 28.6559,
    "lng": 121.4209,
    "port_type": "seaport",
    "size": "medium",
    "annual_teu": 600000,
    "region": "East Asia",
    "timezone": "Asia/Shanghai"
  },
  {
    "locode": "CNQZJ",
    "name": "Quzhou",
    "country": "China",
    "country_code": "CN",
    "lat": 28.9359,
    "lng": 118.8743,
    "port_type": "seaport",
    "size": "small",
    "annual_teu": 100000,
    "region": "East Asia",
    "timezone": "Asia/Shanghai"
  },
  {
    "locode": "CNJMN",
    "name": "Jiangmen",
    "country": "China",
    "country_code": "CN",
    "lat": 22.5791,
    "lng": 113.0815,
    "port_type": "seaport",
    "size": "small",
    "annual_teu": 400000,
    "region": "East Asia",
    "timezone": "Asia/Shanghai"
  },
  {
    "locode": "CNSDG",
    "name": "Shandong Weifang",
    "country": "China",
    "country_code": "CN",
    "lat": 36.7068,
    "lng": 119.1619,
    "port_type": "seaport",
    "size": "small",
    "annual_teu": 300000,
    "region": "East Asia",
    "timezone": "Asia/Shanghai"
  },
  {
    "locode": "CNZHG",
    "name": "Zhangjiagang",
    "country": "China",
    "country_code": "CN",
    "lat": 31.8714,
    "lng": 120.5577,
    "port_type": "seaport",
    "size": "medium",
    "annual_teu": 700000,
    "region": "East Asia",
    "timezone": "Asia/Shanghai"
  },
  {
    "locode": "CNLYG2",
    "name": "Longyan",
    "country": "China",
    "country_code": "CN",
    "lat": 25.0759,
    "lng": 117.0175,
    "port_type": "seaport",
    "size": "small",
    "annual_teu": 100000,
    "region": "East Asia",
    "timezone": "Asia/Shanghai"
  },
  {
    "locode": "CNMWN",
    "name": "Mawei",
    "country": "China",
    "country_code": "CN",
    "lat": 26.0457,
    "lng": 119.4563,
    "port_type": "seaport",
    "size": "small",
    "annual_teu": 300000,
    "region": "East Asia",
    "timezone": "Asia/Shanghai"
  },
  {
    "locode": "CNJZH",
    "name": "Jinzhou",
    "country": "China",
    "country_code": "CN",
    "lat": 41.1072,
    "lng": 121.127,
    "port_type": "seaport",
    "size": "small",
    "annual_teu": 200000,
    "region": "East Asia",
    "timezone": "Asia/Shanghai"
  },
  {
    "locode": "CNHLD",
    "name": "Huludao",
    "country": "China",
    "country_code": "CN",
    "lat": 40.7109,
    "lng": 120.8365,
    "port_type": "seaport",
    "size": "small",
    "annual_teu": 100000,
    "region": "East Asia",
    "timezone": "Asia/Shanghai"
  },
  {
    "locode": "CNQHD",
    "name": "Quangang",
    "country": "China",
    "country_code": "CN",
    "lat": 25.1252,
    "lng": 118.9137,
    "port_type": "seaport",
    "size": "small",
    "annual_teu": 200000,
    "region": "East Asia",
    "timezone": "Asia/Shanghai"
  },
  {
    "locode": "CNSZH",
    "name": "Suzhou Changshu",
    "country": "China",
    "country_code": "CN",
    "lat": 31.6536,
    "lng": 120.7529,
    "port_type": "seaport",
    "size": "medium",
    "annual_teu": 500000,
    "region": "East Asia",
    "timezone": "Asia/Shanghai"
  },
  {
    "locode": "SGSIN",
    "name": "Singapore",
    "country": "Singapore",
    "country_code": "SG",
    "lat": 1.2644,
    "lng": 103.82,
    "port_type": "seaport",
    "size": "mega",
    "annual_teu": 37200000,
    "region": "SE Asia",
    "timezone": "Asia/Singapore"
  },
  {
    "locode": "MYTPP",
    "name": "Port Klang",
    "country": "Malaysia",
    "country_code": "MY",
    "lat": 3.0319,
    "lng": 101.3685,
    "port_type": "seaport",
    "size": "mega",
    "annual_teu": 14380000,
    "region": "SE Asia",
    "timezone": "Asia/Kuala_Lumpur"
  },
  {
    "locode": "MYPGU",
    "name": "Tanjung Pelepas",
    "country": "Malaysia",
    "country_code": "MY",
    "lat": 1.3623,
    "lng": 103.5509,
    "port_type": "seaport",
    "size": "mega",
    "annual_teu": 11200000,
    "region": "SE Asia",
    "timezone": "Asia/Kuala_Lumpur"
  },
  {
    "locode": "VNSGN",
    "name": "Ho Chi Minh City (Cat Lai)",
    "country": "Vietnam",
    "country_code": "VN",
    "lat": 10.7626,
    "lng": 106.7432,
    "port_type": "seaport",
    "size": "mega",
    "annual_teu": 8500000,
    "region": "SE Asia",
    "timezone": "Asia/Ho_Chi_Minh"
  },
  {
    "locode": "VNHPH",
    "name": "Hai Phong",
    "country": "Vietnam",
    "country_code": "VN",
    "lat": 20.8449,
    "lng": 106.6881,
    "port_type": "seaport",
    "size": "large",
    "annual_teu": 5800000,
    "region": "SE Asia",
    "timezone": "Asia/Ho_Chi_Minh"
  },
  {
    "locode": "THBKK",
    "name": "Bangkok (Laem Chabang)",
    "country": "Thailand",
    "country_code": "TH",
    "lat": 13.0796,
    "lng": 100.8828,
    "port_type": "seaport",
    "size": "mega",
    "annual_teu": 8900000,
    "region": "SE Asia",
    "timezone": "Asia/Bangkok"
  },
  {
    "locode": "IDTPP",
    "name": "Tanjung Priok (Jakarta)",
    "country": "Indonesia",
    "country_code": "ID",
    "lat": -6.1024,
    "lng": 106.8804,
    "port_type": "seaport",
    "size": "large",
    "annual_teu": 7600000,
    "region": "SE Asia",
    "timezone": "Asia/Jakarta"
  },
  {
    "locode": "PHMNL",
    "name": "Manila",
    "country": "Philippines",
    "country_code": "PH",
    "lat": 14.5995,
    "lng": 120.9842,
    "port_type": "seaport",
    "size": "large",
    "annual_teu": 5400000,
    "region": "SE Asia",
    "timezone": "Asia/Manila"
  },
  {
    "locode": "VNVUT",
    "name": "Vung Tau",
    "country": "Vietnam",
    "country_code": "VN",
    "lat": 10.346,
    "lng": 107.0843,
    "port_type": "seaport",
    "size": "medium",
    "annual_teu": 1200000,
    "region": "SE Asia",
    "timezone": "Asia/Ho_Chi_Minh"
  },
  {
    "locode": "VNDAN",
    "name": "Da Nang",
    "country": "Vietnam",
    "country_code": "VN",
    "lat": 16.0544,
    "lng": 108.2022,
    "port_type": "seaport",
    "size": "medium",
    "annual_teu": 450000,
    "region": "SE Asia",
    "timezone": "Asia/Ho_Chi_Minh"
  },
  {
    "locode": "VNCLI",
    "name": "Cam Ranh (Cai Mep)",
    "country": "Vietnam",
    "country_code": "VN",
    "lat": 10.5071,
    "lng": 107.0315,
    "port_type": "seaport",
    "size": "large",
    "annual_teu": 4500000,
    "region": "SE Asia",
    "timezone": "Asia/Ho_Chi_Minh"
  },
  {
    "locode": "VNQNH",
    "name": "Quy Nhon",
    "country": "Vietnam",
    "country_code": "VN",
    "lat": 13.7765,
    "lng": 109.2237,
    "port_type": "seaport",
    "size": "small",
    "annual_teu": 200000,
    "region": "SE Asia",
    "timezone": "Asia/Ho_Chi_Minh"
  },
  {
    "locode": "MYPEN",
    "name": "Penang",
    "country": "Malaysia",
    "country_code": "MY",
    "lat": 5.2632,
    "lng": 100.3467,
    "port_type": "seaport",
    "size": "medium",
    "annual_teu": 1590000,
    "region": "SE Asia",
    "timezone": "Asia/Kuala_Lumpur"
  },
  {
    "locode": "MYKCH",
    "name": "Kuching",
    "country": "Malaysia",
    "country_code": "MY",
    "lat": 1.5535,
    "lng": 110.3593,
    "port_type": "seaport",
    "size": "small",
    "annual_teu": 250000,
    "region": "SE Asia",
    "timezone": "Asia/Kuching"
  },
  {
    "locode": "MYBTU",
    "name": "Bintulu",
    "country": "Malaysia",
    "country_code": "MY",
    "lat": 3.174,
    "lng": 113.0393,
    "port_type": "seaport",
    "size": "medium",
    "annual_teu": 400000,
    "region": "SE Asia",
    "timezone": "Asia/Kuching"
  },
  {
    "locode": "MYKUA",
    "name": "Kuantan",
    "country": "Malaysia",
    "country_code": "MY",
    "lat": 3.974,
    "lng": 103.422,
    "port_type": "seaport",
    "size": "medium",
    "annual_teu": 300000,
    "region": "SE Asia",
    "timezone": "Asia/Kuala_Lumpur"
  },
  {
    "locode": "MYSDK",
    "name": "Sandakan",
    "country": "Malaysia",
    "country_code": "MY",
    "lat": 5.8402,
    "lng": 118.0553,
    "port_type": "seaport",
    "size": "small",
    "annual_teu": 100000,
    "region": "SE Asia",
    "timezone": "Asia/Kuching"
  },
  {
    "locode": "IDTPK",
    "name": "Tanjung Perak (Surabaya)",
    "country": "Indonesia",
    "country_code": "ID",
    "lat": -7.2004,
    "lng": 112.7339,
    "port_type": "seaport",
    "size": "large",
    "annual_teu": 3400000,
    "region": "SE Asia",
    "timezone": "Asia/Jakarta"
  },
  {
    "locode": "IDBLW",
    "name": "Belawan (Medan)",
    "country": "Indonesia",
    "country_code": "ID",
    "lat": 3.7865,
    "lng": 98.6842,
    "port_type": "seaport",
    "size": "medium",
    "annual_teu": 1200000,
    "region": "SE Asia",
    "timezone": "Asia/Jakarta"
  },
  {
    "locode": "IDSRG",
    "name": "Semarang",
    "country": "Indonesia",
    "country_code": "ID",
    "lat": -6.9504,
    "lng": 110.4196,
    "port_type": "seaport",
    "size": "medium",
    "annual_teu": 600000,
    "region": "SE Asia",
    "timezone": "Asia/Jakarta"
  },
  {
    "locode": "IDMKR",
    "name": "Makassar",
    "country": "Indonesia",
    "country_code": "ID",
    "lat": -5.1478,
    "lng": 119.4327,
    "port_type": "seaport",
    "size": "medium",
    "annual_teu": 500000,
    "region": "SE Asia",
    "timezone": "Asia/Makassar"
  },
  {
    "locode": "IDBPN",
    "name": "Balikpapan",
    "country": "Indonesia",
    "country_code": "ID",
    "lat": -1.2654,
    "lng": 116.831,
    "port_type": "seaport",
    "size": "medium",
    "annual_teu": 400000,
    "region": "SE Asia",
    "timezone": "Asia/Makassar"
  },
  {
    "locode": "IDPNK",
    "name": "Pontianak",
    "country": "Indonesia",
    "country_code": "ID",
    "lat": -0.0263,
    "lng": 109.3425,
    "port_type": "seaport",
    "size": "small",
    "annual_teu": 200000,
    "region": "SE Asia",
    "timezone": "Asia/Pontianak"
  },
  {
    "locode": "IDBNJ",
    "name": "Banjarmasin",
    "country": "Indonesia",
    "country_code": "ID",
    "lat": -3.3186,
    "lng": 114.5945,
    "port_type": "seaport",
    "size": "small",
    "annual_teu": 300000,
    "region": "SE Asia",
    "timezone": "Asia/Makassar"
  },
  {
    "locode": "PHCEB",
    "name": "Cebu",
    "country": "Philippines",
    "country_code": "PH",
    "lat": 10.3157,
    "lng": 123.8854,
    "port_type": "seaport",
    "size": "medium",
    "annual_teu": 850000,
    "region": "SE Asia",
    "timezone": "Asia/Manila"
  },
  {
    "locode": "PHSFS",
    "name": "Subic Bay",
    "country": "Philippines",
    "country_code": "PH",
    "lat": 14.7944,
    "lng": 120.2832,
    "port_type": "seaport",
    "size": "medium",
    "annual_teu": 400000,
    "region": "SE Asia",
    "timezone": "Asia/Manila"
  },
  {
    "locode": "PHDVO",
    "name": "Davao",
    "country": "Philippines",
    "country_code": "PH",
    "lat": 7.0644,
    "lng": 125.6078,
    "port_type": "seaport",
    "size": "medium",
    "annual_teu": 350000,
    "region": "SE Asia",
    "timezone": "Asia/Manila"
  },
  {
    "locode": "PHBAT",
    "name": "Batangas",
    "country": "Philippines",
    "country_code": "PH",
    "lat": 13.7565,
    "lng": 121.0583,
    "port_type": "seaport",
    "size": "medium",
    "annual_teu": 300000,
    "region": "SE Asia",
    "timezone": "Asia/Manila"
  },
  {
    "locode": "THSGZ",
    "name": "Songkhla",
    "country": "Thailand",
    "country_code": "TH",
    "lat": 7.1896,
    "lng": 100.5946,
    "port_type": "seaport",
    "size": "small",
    "annual_teu": 200000,
    "region": "SE Asia",
    "timezone": "Asia/Bangkok"
  },
  {
    "locode": "THMAP",
    "name": "Map Ta Phut",
    "country": "Thailand",
    "country_code": "TH",
    "lat": 12.7149,
    "lng": 101.1597,
    "port_type": "seaport",
    "size": "medium",
    "annual_teu": 500000,
    "region": "SE Asia",
    "timezone": "Asia/Bangkok"
  },
  {
    "locode": "MMRGN",
    "name": "Yangon",
    "country": "Myanmar",
    "country_code": "MM",
    "lat": 16.8409,
    "lng": 96.1735,
    "port_type": "seaport",
    "size": "medium",
    "annual_teu": 600000,
    "region": "SE Asia",
    "timezone": "Asia/Yangon"
  },
  {
    "locode": "KHPNH",
    "name": "Phnom Penh (Autonomous Port)",
    "country": "Cambodia",
    "country_code": "KH",
    "lat": 11.5925,
    "lng": 104.9174,
    "port_type": "seaport",
    "size": "small",
    "annual_teu": 300000,
    "region": "SE Asia",
    "timezone": "Asia/Phnom_Penh"
  },
  {
    "locode": "KHSHV",
    "name": "Sihanoukville",
    "country": "Cambodia",
    "country_code": "KH",
    "lat": 10.6275,
    "lng": 103.5078,
    "port_type": "seaport",
    "size": "small",
    "annual_teu": 250000,
    "region": "SE Asia",
    "timezone": "Asia/Phnom_Penh"
  },
  {
    "locode": "BNBWN",
    "name": "Muara",
    "country": "Brunei",
    "country_code": "BN",
    "lat": 5.022,
    "lng": 115.075,
    "port_type": "seaport",
    "size": "small",
    "annual_teu": 100000,
    "region": "SE Asia",
    "timezone": "Asia/Brunei"
  },
  {
    "locode": "TLBAU",
    "name": "Dili (Timor-Leste)",
    "country": "Timor-Leste",
    "country_code": "TL",
    "lat": -8.5569,
    "lng": 125.5603,
    "port_type": "seaport",
    "size": "small",
    "annual_teu": 30000,
    "region": "SE Asia",
    "timezone": "Asia/Dili"
  },
  {
    "locode": "KRPUS",
    "name": "Busan",
    "country": "South Korea",
    "country_code": "KR",
    "lat": 35.1028,
    "lng": 129.0403,
    "port_type": "seaport",
    "size": "mega",
    "annual_teu": 22060000,
    "region": "East Asia",
    "timezone": "Asia/Seoul"
  },
  {
    "locode": "KRINC",
    "name": "Incheon",
    "country": "South Korea",
    "country_code": "KR",
    "lat": 37.4563,
    "lng": 126.7052,
    "port_type": "seaport",
    "size": "large",
    "annual_teu": 3300000,
    "region": "East Asia",
    "timezone": "Asia/Seoul"
  },
  {
    "locode": "KRKWA",
    "name": "Gwangyang",
    "country": "South Korea",
    "country_code": "KR",
    "lat": 34.921,
    "lng": 127.6925,
    "port_type": "seaport",
    "size": "large",
    "annual_teu": 2400000,
    "region": "East Asia",
    "timezone": "Asia/Seoul"
  },
  {
    "locode": "KRUSN",
    "name": "Ulsan",
    "country": "South Korea",
    "country_code": "KR",
    "lat": 35.5384,
    "lng": 129.3114,
    "port_type": "seaport",
    "size": "medium",
    "annual_teu": 1500000,
    "region": "East Asia",
    "timezone": "Asia/Seoul"
  },
  {
    "locode": "KRPYH",
    "name": "Pyeongtaek-Dangjin",
    "country": "South Korea",
    "country_code": "KR",
    "lat": 36.9613,
    "lng": 126.8237,
    "port_type": "seaport",
    "size": "medium",
    "annual_teu": 800000,
    "region": "East Asia",
    "timezone": "Asia/Seoul"
  },
  {
    "locode": "KRMAS",
    "name": "Masan",
    "country": "South Korea",
    "country_code": "KR",
    "lat": 35.18,
    "lng": 128.568,
    "port_type": "seaport",
    "size": "small",
    "annual_teu": 300000,
    "region": "East Asia",
    "timezone": "Asia/Seoul"
  },
  {
    "locode": "KRMOK",
    "name": "Mokpo",
    "country": "South Korea",
    "country_code": "KR",
    "lat": 34.7604,
    "lng": 126.38,
    "port_type": "seaport",
    "size": "small",
    "annual_teu": 150000,
    "region": "East Asia",
    "timezone": "Asia/Seoul"
  },
  {
    "locode": "JPTYO",
    "name": "Tokyo",
    "country": "Japan",
    "country_code": "JP",
    "lat": 35.628,
    "lng": 139.7736,
    "port_type": "seaport",
    "size": "large",
    "annual_teu": 4500000,
    "region": "East Asia",
    "timezone": "Asia/Tokyo"
  },
  {
    "locode": "JPYOK",
    "name": "Yokohama",
    "country": "Japan",
    "country_code": "JP",
    "lat": 35.4437,
    "lng": 139.638,
    "port_type": "seaport",
    "size": "large",
    "annual_teu": 2900000,
    "region": "East Asia",
    "timezone": "Asia/Tokyo"
  },
  {
    "locode": "JPNGO",
    "name": "Nagoya",
    "country": "Japan",
    "country_code": "JP",
    "lat": 35.0896,
    "lng": 136.8795,
    "port_type": "seaport",
    "size": "large",
    "annual_teu": 2720000,
    "region": "East Asia",
    "timezone": "Asia/Tokyo"
  },
  {
    "locode": "JPOSA",
    "name": "Osaka",
    "country": "Japan",
    "country_code": "JP",
    "lat": 34.658,
    "lng": 135.428,
    "port_type": "seaport",
    "size": "large",
    "annual_teu": 2400000,
    "region": "East Asia",
    "timezone": "Asia/Tokyo"
  },
  {
    "locode": "JPUKB",
    "name": "Kobe",
    "country": "Japan",
    "country_code": "JP",
    "lat": 34.675,
    "lng": 135.196,
    "port_type": "seaport",
    "size": "large",
    "annual_teu": 2800000,
    "region": "East Asia",
    "timezone": "Asia/Tokyo"
  },
  {
    "locode": "JPHKT",
    "name": "Hakata (Fukuoka)",
    "country": "Japan",
    "country_code": "JP",
    "lat": 33.5892,
    "lng": 130.4011,
    "port_type": "seaport",
    "size": "medium",
    "annual_teu": 900000,
    "region": "East Asia",
    "timezone": "Asia/Tokyo"
  },
  {
    "locode": "JPSMZ",
    "name": "Shimizu",
    "country": "Japan",
    "country_code": "JP",
    "lat": 35.0116,
    "lng": 138.4884,
    "port_type": "seaport",
    "size": "medium",
    "annual_teu": 500000,
    "region": "East Asia",
    "timezone": "Asia/Tokyo"
  },
  {
    "locode": "JPHIJ",
    "name": "Hiroshima",
    "country": "Japan",
    "country_code": "JP",
    "lat": 34.3853,
    "lng": 132.4553,
    "port_type": "seaport",
    "size": "small",
    "annual_teu": 300000,
    "region": "East Asia",
    "timezone": "Asia/Tokyo"
  },
  {
    "locode": "JPKIT",
    "name": "Kitakyushu (Moji)",
    "country": "Japan",
    "country_code": "JP",
    "lat": 33.8835,
    "lng": 130.8813,
    "port_type": "seaport",
    "size": "medium",
    "annual_teu": 600000,
    "region": "East Asia",
    "timezone": "Asia/Tokyo"
  },
  {
    "locode": "JPNII",
    "name": "Niigata",
    "country": "Japan",
    "country_code": "JP",
    "lat": 37.9161,
    "lng": 139.0364,
    "port_type": "seaport",
    "size": "small",
    "annual_teu": 200000,
    "region": "East Asia",
    "timezone": "Asia/Tokyo"
  },
  {
    "locode": "JPSDJ",
    "name": "Sendai (Shiogama)",
    "country": "Japan",
    "country_code": "JP",
    "lat": 38.3166,
    "lng": 141.023,
    "port_type": "seaport",
    "size": "small",
    "annual_teu": 200000,
    "region": "East Asia",
    "timezone": "Asia/Tokyo"
  },
  {
    "locode": "JPNHA",
    "name": "Naha (Okinawa)",
    "country": "Japan",
    "country_code": "JP",
    "lat": 26.2124,
    "lng": 127.6725,
    "port_type": "seaport",
    "size": "small",
    "annual_teu": 100000,
    "region": "East Asia",
    "timezone": "Asia/Tokyo"
  },
  {
    "locode": "JPCHB",
    "name": "Chiba",
    "country": "Japan",
    "country_code": "JP",
    "lat": 35.5657,
    "lng": 140.0485,
    "port_type": "seaport",
    "size": "medium",
    "annual_teu": 400000,
    "region": "East Asia",
    "timezone": "Asia/Tokyo"
  },
  {
    "locode": "JPKWZ",
    "name": "Kawasaki",
    "country": "Japan",
    "country_code": "JP",
    "lat": 35.5308,
    "lng": 139.703,
    "port_type": "seaport",
    "size": "medium",
    "annual_teu": 350000,
    "region": "East Asia",
    "timezone": "Asia/Tokyo"
  },
  {
    "locode": "TWKHH",
    "name": "Kaohsiung",
    "country": "Taiwan",
    "country_code": "TW",
    "lat": 22.6137,
    "lng": 120.2818,
    "port_type": "seaport",
    "size": "mega",
    "annual_teu": 9400000,
    "region": "East Asia",
    "timezone": "Asia/Taipei"
  },
  {
    "locode": "TWKEL",
    "name": "Keelung",
    "country": "Taiwan",
    "country_code": "TW",
    "lat": 25.1276,
    "lng": 121.7392,
    "port_type": "seaport",
    "size": "large",
    "annual_teu": 1500000,
    "region": "East Asia",
    "timezone": "Asia/Taipei"
  },
  {
    "locode": "TWTXG",
    "name": "Taichung",
    "country": "Taiwan",
    "country_code": "TW",
    "lat": 24.2801,
    "lng": 120.518,
    "port_type": "seaport",
    "size": "large",
    "annual_teu": 1800000,
    "region": "East Asia",
    "timezone": "Asia/Taipei"
  },
  {
    "locode": "HKHKG",
    "name": "Hong Kong",
    "country": "Hong Kong SAR",
    "country_code": "HK",
    "lat": 22.2783,
    "lng": 114.1747,
    "port_type": "seaport",
    "size": "mega",
    "annual_teu": 14960000,
    "region": "East Asia",
    "timezone": "Asia/Hong_Kong"
  },
  {
    "locode": "USLAX",
    "name": "Los Angeles",
    "country": "United States",
    "country_code": "US",
    "lat": 33.7395,
    "lng": -118.2751,
    "port_type": "seaport",
    "size": "mega",
    "annual_teu": 9900000,
    "region": "North America",
    "timezone": "America/Los_Angeles"
  },
  {
    "locode": "USLGB",
    "name": "Long Beach",
    "country": "United States",
    "country_code": "US",
    "lat": 33.7523,
    "lng": -118.2136,
    "port_type": "seaport",
    "size": "mega",
    "annual_teu": 9100000,
    "region": "North America",
    "timezone": "America/Los_Angeles"
  },
  {
    "locode": "USNYC",
    "name": "New York/New Jersey",
    "country": "United States",
    "country_code": "US",
    "lat": 40.6688,
    "lng": -74.0418,
    "port_type": "seaport",
    "size": "mega",
    "annual_teu": 9500000,
    "region": "North America",
    "timezone": "America/New_York"
  },
  {
    "locode": "USSAV",
    "name": "Savannah",
    "country": "United States",
    "country_code": "US",
    "lat": 32.126,
    "lng": -81.2021,
    "port_type": "seaport",
    "size": "mega",
    "annual_teu": 5800000,
    "region": "North America",
    "timezone": "America/New_York"
  },
  {
    "locode": "USHOU",
    "name": "Houston",
    "country": "United States",
    "country_code": "US",
    "lat": 29.7267,
    "lng": -95.2677,
    "port_type": "seaport",
    "size": "mega",
    "annual_teu": 4100000,
    "region": "North America",
    "timezone": "America/Chicago"
  },
  {
    "locode": "USSEA",
    "name": "Seattle",
    "country": "United States",
    "country_code": "US",
    "lat": 47.5802,
    "lng": -122.3359,
    "port_type": "seaport",
    "size": "large",
    "annual_teu": 3400000,
    "region": "North America",
    "timezone": "America/Los_Angeles"
  },
  {
    "locode": "USTCM",
    "name": "Tacoma",
    "country": "United States",
    "country_code": "US",
    "lat": 47.2636,
    "lng": -122.4244,
    "port_type": "seaport",
    "size": "large",
    "annual_teu": 2200000,
    "region": "North America",
    "timezone": "America/Los_Angeles"
  },
  {
    "locode": "USNFK",
    "name": "Norfolk (Virginia)",
    "country": "United States",
    "country_code": "US",
    "lat": 36.8466,
    "lng": -76.2951,
    "port_type": "seaport",
    "size": "large",
    "annual_teu": 3700000,
    "region": "North America",
    "timezone": "America/New_York"
  },
  {
    "locode": "USCHS",
    "name": "Charleston",
    "country": "United States",
    "country_code": "US",
    "lat": 32.7765,
    "lng": -79.9311,
    "port_type": "seaport",
    "size": "large",
    "annual_teu": 2900000,
    "region": "North America",
    "timezone": "America/New_York"
  },
  {
    "locode": "USOAK",
    "name": "Oakland",
    "country": "United States",
    "country_code": "US",
    "lat": 37.7953,
    "lng": -122.2789,
    "port_type": "seaport",
    "size": "large",
    "annual_teu": 2500000,
    "region": "North America",
    "timezone": "America/Los_Angeles"
  },
  {
    "locode": "USMIA",
    "name": "Miami (PortMiami)",
    "country": "United States",
    "country_code": "US",
    "lat": 25.7744,
    "lng": -80.1653,
    "port_type": "seaport",
    "size": "large",
    "annual_teu": 1200000,
    "region": "North America",
    "timezone": "America/New_York"
  },
  {
    "locode": "USJAX",
    "name": "Jacksonville (JAXPORT)",
    "country": "United States",
    "country_code": "US",
    "lat": 30.3975,
    "lng": -81.5389,
    "port_type": "seaport",
    "size": "large",
    "annual_teu": 1500000,
    "region": "North America",
    "timezone": "America/New_York"
  },
  {
    "locode": "USBAL",
    "name": "Baltimore",
    "country": "United States",
    "country_code": "US",
    "lat": 39.2654,
    "lng": -76.5709,
    "port_type": "seaport",
    "size": "large",
    "annual_teu": 1100000,
    "region": "North America",
    "timezone": "America/New_York"
  },
  {
    "locode": "USPHL",
    "name": "Philadelphia",
    "country": "United States",
    "country_code": "US",
    "lat": 39.8937,
    "lng": -75.1747,
    "port_type": "seaport",
    "size": "large",
    "annual_teu": 700000,
    "region": "North America",
    "timezone": "America/New_York"
  },
  {
    "locode": "USNOL",
    "name": "New Orleans",
    "country": "United States",
    "country_code": "US",
    "lat": 29.9392,
    "lng": -90.0561,
    "port_type": "seaport",
    "size": "large",
    "annual_teu": 600000,
    "region": "North America",
    "timezone": "America/Chicago"
  },
  {
    "locode": "USBOS",
    "name": "Boston",
    "country": "United States",
    "country_code": "US",
    "lat": 42.3541,
    "lng": -71.0475,
    "port_type": "seaport",
    "size": "medium",
    "annual_teu": 280000,
    "region": "North America",
    "timezone": "America/New_York"
  },
  {
    "locode": "USMOB",
    "name": "Mobile",
    "country": "United States",
    "country_code": "US",
    "lat": 30.6954,
    "lng": -88.0399,
    "port_type": "seaport",
    "size": "medium",
    "annual_teu": 400000,
    "region": "North America",
    "timezone": "America/Chicago"
  },
  {
    "locode": "USTPA",
    "name": "Tampa",
    "country": "United States",
    "country_code": "US",
    "lat": 27.9116,
    "lng": -82.456,
    "port_type": "seaport",
    "size": "medium",
    "annual_teu": 350000,
    "region": "North America",
    "timezone": "America/New_York"
  },
  {
    "locode": "USPDX",
    "name": "Portland (Oregon)",
    "country": "United States",
    "country_code": "US",
    "lat": 45.5945,
    "lng": -122.7576,
    "port_type": "seaport",
    "size": "medium",
    "annual_teu": 200000,
    "region": "North America",
    "timezone": "America/Los_Angeles"
  },
  {
    "locode": "USSFO",
    "name": "San Francisco",
    "country": "United States",
    "country_code": "US",
    "lat": 37.7955,
    "lng": -122.3895,
    "port_type": "seaport",
    "size": "medium",
    "annual_teu": 150000,
    "region": "North America",
    "timezone": "America/Los_Angeles"
  },
  {
    "locode": "USILM",
    "name": "Wilmington (NC)",
    "country": "United States",
    "country_code": "US",
    "lat": 34.2257,
    "lng": -77.9447,
    "port_type": "seaport",
    "size": "medium",
    "annual_teu": 350000,
    "region": "North America",
    "timezone": "America/New_York"
  },
  {
    "locode": "USPEF",
    "name": "Port Everglades",
    "country": "United States",
    "country_code": "US",
    "lat": 26.0873,
    "lng": -80.1164,
    "port_type": "seaport",
    "size": "large",
    "annual_teu": 1100000,
    "region": "North America",
    "timezone": "America/New_York"
  },
  {
    "locode": "USGLS",
    "name": "Galveston",
    "country": "United States",
    "country_code": "US",
    "lat": 29.3013,
    "lng": -94.7977,
    "port_type": "seaport",
    "size": "medium",
    "annual_teu": 200000,
    "region": "North America",
    "timezone": "America/Chicago"
  },
  {
    "locode": "USBRW",
    "name": "Brownsville",
    "country": "United States",
    "country_code": "US",
    "lat": 25.9975,
    "lng": -97.4572,
    "port_type": "seaport",
    "size": "medium",
    "annual_teu": 100000,
    "region": "North America",
    "timezone": "America/Chicago"
  },
  {
    "locode": "USSAN",
    "name": "San Diego",
    "country": "United States",
    "country_code": "US",
    "lat": 32.7336,
    "lng": -117.192,
    "port_type": "seaport",
    "size": "small",
    "annual_teu": 80000,
    "region": "North America",
    "timezone": "America/Los_Angeles"
  },
  {
    "locode": "USHNL",
    "name": "Honolulu",
    "country": "United States",
    "country_code": "US",
    "lat": 21.3069,
    "lng": -157.8583,
    "port_type": "seaport",
    "size": "medium",
    "annual_teu": 300000,
    "region": "North America",
    "timezone": "Pacific/Honolulu"
  },
  {
    "locode": "USANC",
    "name": "Anchorage",
    "country": "United States",
    "country_code": "US",
    "lat": 61.2342,
    "lng": -149.8999,
    "port_type": "seaport",
    "size": "medium",
    "annual_teu": 200000,
    "region": "North America",
    "timezone": "America/Anchorage"
  },
  {
    "locode": "USCRP",
    "name": "Corpus Christi",
    "country": "United States",
    "country_code": "US",
    "lat": 27.8006,
    "lng": -97.3964,
    "port_type": "seaport",
    "size": "medium",
    "annual_teu": 150000,
    "region": "North America",
    "timezone": "America/Chicago"
  },
  {
    "locode": "USFPT",
    "name": "Freeport (TX)",
    "country": "United States",
    "country_code": "US",
    "lat": 28.9541,
    "lng": -95.3597,
    "port_type": "seaport",
    "size": "medium",
    "annual_teu": 100000,
    "region": "North America",
    "timezone": "America/Chicago"
  },
  {
    "locode": "USGPT",
    "name": "Gulfport (MS)",
    "country": "United States",
    "country_code": "US",
    "lat": 30.3674,
    "lng": -89.0928,
    "port_type": "seaport",
    "size": "medium",
    "annual_teu": 250000,
    "region": "North America",
    "timezone": "America/Chicago"
  },
  {
    "locode": "USDET",
    "name": "Detroit",
    "country": "United States",
    "country_code": "US",
    "lat": 42.3314,
    "lng": -83.0458,
    "port_type": "seaport",
    "size": "medium",
    "annual_teu": 200000,
    "region": "North America",
    "timezone": "America/Detroit"
  },
  {
    "locode": "USCHI",
    "name": "Chicago",
    "country": "United States",
    "country_code": "US",
    "lat": 41.7377,
    "lng": -87.5566,
    "port_type": "seaport",
    "size": "medium",
    "annual_teu": 150000,
    "region": "North America",
    "timezone": "America/Chicago"
  },
  {
    "locode": "USDLH",
    "name": "Duluth",
    "country": "United States",
    "country_code": "US",
    "lat": 46.7867,
    "lng": -92.1005,
    "port_type": "seaport",
    "size": "small",
    "annual_teu": 50000,
    "region": "North America",
    "timezone": "America/Chicago"
  },
  {
    "locode": "USCNV",
    "name": "Port Canaveral",
    "country": "United States",
    "country_code": "US",
    "lat": 28.4089,
    "lng": -80.6102,
    "port_type": "seaport",
    "size": "medium",
    "annual_teu": 200000,
    "region": "North America",
    "timezone": "America/New_York"
  },
  {
    "locode": "NLRTM",
    "name": "Rotterdam",
    "country": "Netherlands",
    "country_code": "NL",
    "lat": 51.9244,
    "lng": 4.4777,
    "port_type": "seaport",
    "size": "mega",
    "annual_teu": 14510000,
    "region": "Europe",
    "timezone": "Europe/Amsterdam"
  },
  {
    "locode": "BEANR",
    "name": "Antwerp-Bruges",
    "country": "Belgium",
    "country_code": "BE",
    "lat": 51.2194,
    "lng": 4.4025,
    "port_type": "seaport",
    "size": "mega",
    "annual_teu": 13520000,
    "region": "Europe",
    "timezone": "Europe/Brussels"
  },
  {
    "locode": "DEHAM",
    "name": "Hamburg",
    "country": "Germany",
    "country_code": "DE",
    "lat": 53.5511,
    "lng": 9.9937,
    "port_type": "seaport",
    "size": "mega",
    "annual_teu": 8700000,
    "region": "Europe",
    "timezone": "Europe/Berlin"
  },
  {
    "locode": "ESPMI",
    "name": "Valencia",
    "country": "Spain",
    "country_code": "ES",
    "lat": 39.4506,
    "lng": -0.3274,
    "port_type": "seaport",
    "size": "large",
    "annual_teu": 5600000,
    "region": "Europe",
    "timezone": "Europe/Madrid"
  },
  {
    "locode": "GRPIR",
    "name": "Piraeus",
    "country": "Greece",
    "country_code": "GR",
    "lat": 37.9475,
    "lng": 23.6427,
    "port_type": "seaport",
    "size": "large",
    "annual_teu": 5400000,
    "region": "Europe",
    "timezone": "Europe/Athens"
  },
  {
    "locode": "DEBRV",
    "name": "Bremerhaven",
    "country": "Germany",
    "country_code": "DE",
    "lat": 53.5396,
    "lng": 8.5809,
    "port_type": "seaport",
    "size": "large",
    "annual_teu": 4800000,
    "region": "Europe",
    "timezone": "Europe/Berlin"
  },
  {
    "locode": "ESALG",
    "name": "Algeciras",
    "country": "Spain",
    "country_code": "ES",
    "lat": 36.1281,
    "lng": -5.4437,
    "port_type": "seaport",
    "size": "large",
    "annual_teu": 5100000,
    "region": "Europe",
    "timezone": "Europe/Madrid"
  },
  {
    "locode": "GBFXT",
    "name": "Felixstowe",
    "country": "United Kingdom",
    "country_code": "GB",
    "lat": 51.9536,
    "lng": 1.3507,
    "port_type": "seaport",
    "size": "large",
    "annual_teu": 3700000,
    "region": "Europe",
    "timezone": "Europe/London"
  },
  {
    "locode": "ITGOA",
    "name": "Genoa",
    "country": "Italy",
    "country_code": "IT",
    "lat": 44.4056,
    "lng": 8.9463,
    "port_type": "seaport",
    "size": "large",
    "annual_teu": 2600000,
    "region": "Europe",
    "timezone": "Europe/Rome"
  },
  {
    "locode": "ESBCN",
    "name": "Barcelona",
    "country": "Spain",
    "country_code": "ES",
    "lat": 41.3545,
    "lng": 2.15,
    "port_type": "seaport",
    "size": "large",
    "annual_teu": 3500000,
    "region": "Europe",
    "timezone": "Europe/Madrid"
  },
  {
    "locode": "GBLGP",
    "name": "London Gateway",
    "country": "United Kingdom",
    "country_code": "GB",
    "lat": 51.5019,
    "lng": 0.4519,
    "port_type": "seaport",
    "size": "large",
    "annual_teu": 1800000,
    "region": "Europe",
    "timezone": "Europe/London"
  },
  {
    "locode": "FRLEH",
    "name": "Le Havre",
    "country": "France",
    "country_code": "FR",
    "lat": 49.4944,
    "lng": 0.1079,
    "port_type": "seaport",
    "size": "large",
    "annual_teu": 3000000,
    "region": "Europe",
    "timezone": "Europe/Paris"
  },
  {
    "locode": "ITGIT",
    "name": "Gioia Tauro",
    "country": "Italy",
    "country_code": "IT",
    "lat": 38.4312,
    "lng": 15.8958,
    "port_type": "seaport",
    "size": "large",
    "annual_teu": 3100000,
    "region": "Europe",
    "timezone": "Europe/Rome"
  },
  {
    "locode": "MTMLA",
    "name": "Marsaxlokk (Malta Freeport)",
    "country": "Malta",
    "country_code": "MT",
    "lat": 35.8381,
    "lng": 14.5283,
    "port_type": "seaport",
    "size": "large",
    "annual_teu": 2900000,
    "region": "Europe",
    "timezone": "Europe/Malta"
  },
  {
    "locode": "TRIST",
    "name": "Istanbul (Ambarli)",
    "country": "Turkey",
    "country_code": "TR",
    "lat": 40.9608,
    "lng": 28.699,
    "port_type": "seaport",
    "size": "large",
    "annual_teu": 4200000,
    "region": "Europe",
    "timezone": "Europe/Istanbul"
  },
  {
    "locode": "PLGDN",
    "name": "Gdansk",
    "country": "Poland",
    "country_code": "PL",
    "lat": 54.352,
    "lng": 18.6466,
    "port_type": "seaport",
    "size": "large",
    "annual_teu": 2100000,
    "region": "Europe",
    "timezone": "Europe/Warsaw"
  },
  {
    "locode": "SEGOT",
    "name": "Gothenburg",
    "country": "Sweden",
    "country_code": "SE",
    "lat": 57.6897,
    "lng": 11.951,
    "port_type": "seaport",
    "size": "medium",
    "annual_teu": 800000,
    "region": "Europe",
    "timezone": "Europe/Stockholm"
  },
  {
    "locode": "DKAAR",
    "name": "Aarhus",
    "country": "Denmark",
    "country_code": "DK",
    "lat": 56.1497,
    "lng": 10.2134,
    "port_type": "seaport",
    "size": "medium",
    "annual_teu": 500000,
    "region": "Europe",
    "timezone": "Europe/Copenhagen"
  },
  {
    "locode": "FRMRS",
    "name": "Marseille (Fos)",
    "country": "France",
    "country_code": "FR",
    "lat": 43.3263,
    "lng": 5.0537,
    "port_type": "seaport",
    "size": "large",
    "annual_teu": 1600000,
    "region": "Europe",
    "timezone": "Europe/Paris"
  },
  {
    "locode": "PTLIS",
    "name": "Lisbon (Sines)",
    "country": "Portugal",
    "country_code": "PT",
    "lat": 37.9514,
    "lng": -8.872,
    "port_type": "seaport",
    "size": "large",
    "annual_teu": 1800000,
    "region": "Europe",
    "timezone": "Europe/Lisbon"
  },
  {
    "locode": "IECLK",
    "name": "Cork",
    "country": "Ireland",
    "country_code": "IE",
    "lat": 51.8503,
    "lng": -8.2943,
    "port_type": "seaport",
    "size": "small",
    "annual_teu": 250000,
    "region": "Europe",
    "timezone": "Europe/Dublin"
  },
  {
    "locode": "NOKRS",
    "name": "Kristiansand",
    "country": "Norway",
    "country_code": "NO",
    "lat": 58.1467,
    "lng": 7.9956,
    "port_type": "seaport",
    "size": "small",
    "annual_teu": 100000,
    "region": "Europe",
    "timezone": "Europe/Oslo"
  },
  {
    "locode": "FIHEL",
    "name": "Helsinki",
    "country": "Finland",
    "country_code": "FI",
    "lat": 60.1695,
    "lng": 24.9354,
    "port_type": "seaport",
    "size": "medium",
    "annual_teu": 500000,
    "region": "Europe",
    "timezone": "Europe/Helsinki"
  },
  {
    "locode": "LVRIX",
    "name": "Riga",
    "country": "Latvia",
    "country_code": "LV",
    "lat": 56.9496,
    "lng": 24.1052,
    "port_type": "seaport",
    "size": "medium",
    "annual_teu": 400000,
    "region": "Europe",
    "timezone": "Europe/Riga"
  },
  {
    "locode": "LTKLA",
    "name": "Klaipeda",
    "country": "Lithuania",
    "country_code": "LT",
    "lat": 55.7033,
    "lng": 21.1443,
    "port_type": "seaport",
    "size": "medium",
    "annual_teu": 500000,
    "region": "Europe",
    "timezone": "Europe/Vilnius"
  },
  {
    "locode": "EETAL",
    "name": "Tallinn (Muuga)",
    "country": "Estonia",
    "country_code": "EE",
    "lat": 59.489,
    "lng": 24.972,
    "port_type": "seaport",
    "size": "medium",
    "annual_teu": 250000,
    "region": "Europe",
    "timezone": "Europe/Tallinn"
  },
  {
    "locode": "RULED",
    "name": "St. Petersburg",
    "country": "Russia",
    "country_code": "RU",
    "lat": 59.9311,
    "lng": 30.3609,
    "port_type": "seaport",
    "size": "large",
    "annual_teu": 2200000,
    "region": "Europe",
    "timezone": "Europe/Moscow"
  },
  {
    "locode": "RUVVO",
    "name": "Vladivostok",
    "country": "Russia",
    "country_code": "RU",
    "lat": 43.1056,
    "lng": 131.8735,
    "port_type": "seaport",
    "size": "medium",
    "annual_teu": 900000,
    "region": "East Asia",
    "timezone": "Asia/Vladivostok"
  },
  {
    "locode": "ITSPE",
    "name": "La Spezia",
    "country": "Italy",
    "country_code": "IT",
    "lat": 44.1024,
    "lng": 9.8241,
    "port_type": "seaport",
    "size": "medium",
    "annual_teu": 1400000,
    "region": "Europe",
    "timezone": "Europe/Rome"
  },
  {
    "locode": "ITLIV",
    "name": "Livorno",
    "country": "Italy",
    "country_code": "IT",
    "lat": 43.551,
    "lng": 10.3023,
    "port_type": "seaport",
    "size": "medium",
    "annual_teu": 800000,
    "region": "Europe",
    "timezone": "Europe/Rome"
  },
  {
    "locode": "ITNAP",
    "name": "Naples",
    "country": "Italy",
    "country_code": "IT",
    "lat": 40.8358,
    "lng": 14.2488,
    "port_type": "seaport",
    "size": "medium",
    "annual_teu": 700000,
    "region": "Europe",
    "timezone": "Europe/Rome"
  },
  {
    "locode": "ROCON",
    "name": "Constanta",
    "country": "Romania",
    "country_code": "RO",
    "lat": 44.1598,
    "lng": 28.6348,
    "port_type": "seaport",
    "size": "medium",
    "annual_teu": 700000,
    "region": "Europe",
    "timezone": "Europe/Bucharest"
  },
  {
    "locode": "BGVAR",
    "name": "Varna",
    "country": "Bulgaria",
    "country_code": "BG",
    "lat": 43.2141,
    "lng": 27.9147,
    "port_type": "seaport",
    "size": "small",
    "annual_teu": 200000,
    "region": "Europe",
    "timezone": "Europe/Sofia"
  },
  {
    "locode": "HRRI",
    "name": "Rijeka",
    "country": "Croatia",
    "country_code": "HR",
    "lat": 45.3271,
    "lng": 14.4422,
    "port_type": "seaport",
    "size": "small",
    "annual_teu": 300000,
    "region": "Europe",
    "timezone": "Europe/Zagreb"
  },
  {
    "locode": "SIKOP",
    "name": "Koper",
    "country": "Slovenia",
    "country_code": "SI",
    "lat": 45.5469,
    "lng": 13.7294,
    "port_type": "seaport",
    "size": "medium",
    "annual_teu": 1000000,
    "region": "Europe",
    "timezone": "Europe/Ljubljana"
  },
  {
    "locode": "TRIZM",
    "name": "Izmir (Mersin)",
    "country": "Turkey",
    "country_code": "TR",
    "lat": 36.7954,
    "lng": 34.6324,
    "port_type": "seaport",
    "size": "large",
    "annual_teu": 2100000,
    "region": "Europe",
    "timezone": "Europe/Istanbul"
  },
  {
    "locode": "GBSOU",
    "name": "Southampton",
    "country": "United Kingdom",
    "country_code": "GB",
    "lat": 50.8909,
    "lng": -1.4049,
    "port_type": "seaport",
    "size": "large",
    "annual_teu": 1700000,
    "region": "Europe",
    "timezone": "Europe/London"
  },
  {
    "locode": "GBLIV",
    "name": "Liverpool",
    "country": "United Kingdom",
    "country_code": "GB",
    "lat": 53.4084,
    "lng": -2.9916,
    "port_type": "seaport",
    "size": "medium",
    "annual_teu": 900000,
    "region": "Europe",
    "timezone": "Europe/London"
  },
  {
    "locode": "NLAMS",
    "name": "Amsterdam",
    "country": "Netherlands",
    "country_code": "NL",
    "lat": 52.4036,
    "lng": 4.7714,
    "port_type": "seaport",
    "size": "medium",
    "annual_teu": 500000,
    "region": "Europe",
    "timezone": "Europe/Amsterdam"
  },
  {
    "locode": "CYLMS",
    "name": "Limassol",
    "country": "Cyprus",
    "country_code": "CY",
    "lat": 34.6401,
    "lng": 33.0357,
    "port_type": "seaport",
    "size": "medium",
    "annual_teu": 400000,
    "region": "Europe",
    "timezone": "Asia/Nicosia"
  },
  {
    "locode": "AEJEA",
    "name": "Jebel Ali (Dubai)",
    "country": "United Arab Emirates",
    "country_code": "AE",
    "lat": 25.0174,
    "lng": 55.0562,
    "port_type": "seaport",
    "size": "mega",
    "annual_teu": 14000000,
    "region": "Middle East",
    "timezone": "Asia/Dubai"
  },
  {
    "locode": "SAJED",
    "name": "Jeddah",
    "country": "Saudi Arabia",
    "country_code": "SA",
    "lat": 21.4858,
    "lng": 39.1925,
    "port_type": "seaport",
    "size": "large",
    "annual_teu": 5700000,
    "region": "Middle East",
    "timezone": "Asia/Riyadh"
  },
  {
    "locode": "OMSLL",
    "name": "Salalah",
    "country": "Oman",
    "country_code": "OM",
    "lat": 16.9588,
    "lng": 54.0052,
    "port_type": "seaport",
    "size": "large",
    "annual_teu": 4000000,
    "region": "Middle East",
    "timezone": "Asia/Muscat"
  },
  {
    "locode": "AESHR",
    "name": "Sharjah (Khalid Port)",
    "country": "United Arab Emirates",
    "country_code": "AE",
    "lat": 25.3657,
    "lng": 55.3976,
    "port_type": "seaport",
    "size": "medium",
    "annual_teu": 600000,
    "region": "Middle East",
    "timezone": "Asia/Dubai"
  },
  {
    "locode": "AEABU",
    "name": "Abu Dhabi (Khalifa Port)",
    "country": "United Arab Emirates",
    "country_code": "AE",
    "lat": 24.8234,
    "lng": 54.6099,
    "port_type": "seaport",
    "size": "large",
    "annual_teu": 1800000,
    "region": "Middle East",
    "timezone": "Asia/Dubai"
  },
  {
    "locode": "SAKAC",
    "name": "King Abdullah City (KAEC)",
    "country": "Saudi Arabia",
    "country_code": "SA",
    "lat": 22.3907,
    "lng": 39.1042,
    "port_type": "seaport",
    "size": "large",
    "annual_teu": 2000000,
    "region": "Middle East",
    "timezone": "Asia/Riyadh"
  },
  {
    "locode": "SADMM",
    "name": "Dammam",
    "country": "Saudi Arabia",
    "country_code": "SA",
    "lat": 26.4291,
    "lng": 50.1013,
    "port_type": "seaport",
    "size": "large",
    "annual_teu": 2100000,
    "region": "Middle East",
    "timezone": "Asia/Riyadh"
  },
  {
    "locode": "BHRUH",
    "name": "Khalifa Bin Salman Port (Bahrain)",
    "country": "Bahrain",
    "country_code": "BH",
    "lat": 26.0022,
    "lng": 50.4929,
    "port_type": "seaport",
    "size": "medium",
    "annual_teu": 400000,
    "region": "Middle East",
    "timezone": "Asia/Bahrain"
  },
  {
    "locode": "QADOH",
    "name": "Hamad Port (Doha)",
    "country": "Qatar",
    "country_code": "QA",
    "lat": 25.0225,
    "lng": 51.3993,
    "port_type": "seaport",
    "size": "large",
    "annual_teu": 2000000,
    "region": "Middle East",
    "timezone": "Asia/Qatar"
  },
  {
    "locode": "KWSAK",
    "name": "Shuwaikh (Kuwait)",
    "country": "Kuwait",
    "country_code": "KW",
    "lat": 29.3559,
    "lng": 47.9346,
    "port_type": "seaport",
    "size": "medium",
    "annual_teu": 700000,
    "region": "Middle East",
    "timezone": "Asia/Kuwait"
  },
  {
    "locode": "IRBNP",
    "name": "Bandar Abbas (Shahid Rajaee)",
    "country": "Iran",
    "country_code": "IR",
    "lat": 27.1865,
    "lng": 56.2808,
    "port_type": "seaport",
    "size": "large",
    "annual_teu": 2600000,
    "region": "Middle East",
    "timezone": "Asia/Tehran"
  },
  {
    "locode": "IQBSR",
    "name": "Umm Qasr (Basra)",
    "country": "Iraq",
    "country_code": "IQ",
    "lat": 30.0346,
    "lng": 47.9389,
    "port_type": "seaport",
    "size": "medium",
    "annual_teu": 900000,
    "region": "Middle East",
    "timezone": "Asia/Baghdad"
  },
  {
    "locode": "JOAQJ",
    "name": "Aqaba",
    "country": "Jordan",
    "country_code": "JO",
    "lat": 29.5167,
    "lng": 35.0,
    "port_type": "seaport",
    "size": "medium",
    "annual_teu": 800000,
    "region": "Middle East",
    "timezone": "Asia/Amman"
  },
  {
    "locode": "ILHFA",
    "name": "Haifa",
    "country": "Israel",
    "country_code": "IL",
    "lat": 32.8162,
    "lng": 34.9862,
    "port_type": "seaport",
    "size": "large",
    "annual_teu": 1500000,
    "region": "Middle East",
    "timezone": "Asia/Jerusalem"
  },
  {
    "locode": "ILASH",
    "name": "Ashdod",
    "country": "Israel",
    "country_code": "IL",
    "lat": 31.8063,
    "lng": 34.6444,
    "port_type": "seaport",
    "size": "large",
    "annual_teu": 1600000,
    "region": "Middle East",
    "timezone": "Asia/Jerusalem"
  },
  {
    "locode": "OMSOH",
    "name": "Sohar",
    "country": "Oman",
    "country_code": "OM",
    "lat": 24.3474,
    "lng": 56.6984,
    "port_type": "seaport",
    "size": "medium",
    "annual_teu": 1000000,
    "region": "Middle East",
    "timezone": "Asia/Muscat"
  },
  {
    "locode": "LBBEY",
    "name": "Beirut",
    "country": "Lebanon",
    "country_code": "LB",
    "lat": 33.8998,
    "lng": 35.5094,
    "port_type": "seaport",
    "size": "medium",
    "annual_teu": 450000,
    "region": "Middle East",
    "timezone": "Asia/Beirut"
  },
  {
    "locode": "YEADE",
    "name": "Aden",
    "country": "Yemen",
    "country_code": "YE",
    "lat": 12.7854,
    "lng": 45.0187,
    "port_type": "seaport",
    "size": "small",
    "annual_teu": 300000,
    "region": "Middle East",
    "timezone": "Asia/Aden"
  },
  {
    "locode": "MATNR",
    "name": "Tanger Med",
    "country": "Morocco",
    "country_code": "MA",
    "lat": 35.8893,
    "lng": -5.507,
    "port_type": "seaport",
    "size": "mega",
    "annual_teu": 7300000,
    "region": "Africa",
    "timezone": "Africa/Casablanca"
  },
  {
    "locode": "EGPSD",
    "name": "Port Said (East)",
    "country": "Egypt",
    "country_code": "EG",
    "lat": 31.2653,
    "lng": 32.3019,
    "port_type": "seaport",
    "size": "large",
    "annual_teu": 3800000,
    "region": "Africa",
    "timezone": "Africa/Cairo"
  },
  {
    "locode": "ZADUR",
    "name": "Durban",
    "country": "South Africa",
    "country_code": "ZA",
    "lat": -29.8587,
    "lng": 31.0218,
    "port_type": "seaport",
    "size": "large",
    "annual_teu": 2900000,
    "region": "Africa",
    "timezone": "Africa/Johannesburg"
  },
  {
    "locode": "DJJIB",
    "name": "Djibouti",
    "country": "Djibouti",
    "country_code": "DJ",
    "lat": 11.595,
    "lng": 43.1456,
    "port_type": "seaport",
    "size": "large",
    "annual_teu": 1500000,
    "region": "Africa",
    "timezone": "Africa/Djibouti"
  },
  {
    "locode": "NGTIN",
    "name": "Tin Can Island (Lagos)",
    "country": "Nigeria",
    "country_code": "NG",
    "lat": 6.4281,
    "lng": 3.3563,
    "port_type": "seaport",
    "size": "large",
    "annual_teu": 1800000,
    "region": "Africa",
    "timezone": "Africa/Lagos"
  },
  {
    "locode": "NGAPP",
    "name": "Apapa (Lagos)",
    "country": "Nigeria",
    "country_code": "NG",
    "lat": 6.4481,
    "lng": 3.3583,
    "port_type": "seaport",
    "size": "large",
    "annual_teu": 1200000,
    "region": "Africa",
    "timezone": "Africa/Lagos"
  },
  {
    "locode": "KEZMB",
    "name": "Mombasa",
    "country": "Kenya",
    "country_code": "KE",
    "lat": -4.0435,
    "lng": 39.6682,
    "port_type": "seaport",
    "size": "large",
    "annual_teu": 1400000,
    "region": "Africa",
    "timezone": "Africa/Nairobi"
  },
  {
    "locode": "TZDAR",
    "name": "Dar es Salaam",
    "country": "Tanzania",
    "country_code": "TZ",
    "lat": -6.8235,
    "lng": 39.2695,
    "port_type": "seaport",
    "size": "medium",
    "annual_teu": 800000,
    "region": "Africa",
    "timezone": "Africa/Dar_es_Salaam"
  },
  {
    "locode": "GHTEM",
    "name": "Tema",
    "country": "Ghana",
    "country_code": "GH",
    "lat": 5.6331,
    "lng": -0.0177,
    "port_type": "seaport",
    "size": "medium",
    "annual_teu": 1000000,
    "region": "Africa",
    "timezone": "Africa/Accra"
  },
  {
    "locode": "CIABC",
    "name": "Abidjan",
    "country": "Ivory Coast",
    "country_code": "CI",
    "lat": 5.2601,
    "lng": -3.9733,
    "port_type": "seaport",
    "size": "medium",
    "annual_teu": 900000,
    "region": "Africa",
    "timezone": "Africa/Abidjan"
  },
  {
    "locode": "EGALY",
    "name": "Alexandria",
    "country": "Egypt",
    "country_code": "EG",
    "lat": 31.1985,
    "lng": 29.8739,
    "port_type": "seaport",
    "size": "large",
    "annual_teu": 1800000,
    "region": "Africa",
    "timezone": "Africa/Cairo"
  },
  {
    "locode": "ZACPT",
    "name": "Cape Town",
    "country": "South Africa",
    "country_code": "ZA",
    "lat": -33.9063,
    "lng": 18.4398,
    "port_type": "seaport",
    "size": "large",
    "annual_teu": 900000,
    "region": "Africa",
    "timezone": "Africa/Johannesburg"
  },
  {
    "locode": "SNDAR",
    "name": "Dakar",
    "country": "Senegal",
    "country_code": "SN",
    "lat": 14.6928,
    "lng": -17.4467,
    "port_type": "seaport",
    "size": "medium",
    "annual_teu": 650000,
    "region": "Africa",
    "timezone": "Africa/Dakar"
  },
  {
    "locode": "MZMPN",
    "name": "Maputo",
    "country": "Mozambique",
    "country_code": "MZ",
    "lat": -25.9655,
    "lng": 32.5892,
    "port_type": "seaport",
    "size": "medium",
    "annual_teu": 400000,
    "region": "Africa",
    "timezone": "Africa/Maputo"
  },
  {
    "locode": "CMLDO",
    "name": "Douala",
    "country": "Cameroon",
    "country_code": "CM",
    "lat": 4.0483,
    "lng": 9.7043,
    "port_type": "seaport",
    "size": "medium",
    "annual_teu": 350000,
    "region": "Africa",
    "timezone": "Africa/Douala"
  },
  {
    "locode": "TGTOG",
    "name": "Lome",
    "country": "Togo",
    "country_code": "TG",
    "lat": 6.1375,
    "lng": 1.2803,
    "port_type": "seaport",
    "size": "medium",
    "annual_teu": 1200000,
    "region": "Africa",
    "timezone": "Africa/Lome"
  },
  {
    "locode": "AOLAD",
    "name": "Luanda",
    "country": "Angola",
    "country_code": "AO",
    "lat": -8.8368,
    "lng": 13.2343,
    "port_type": "seaport",
    "size": "medium",
    "annual_teu": 500000,
    "region": "Africa",
    "timezone": "Africa/Luanda"
  },
  {
    "locode": "DZALG",
    "name": "Algiers",
    "country": "Algeria",
    "country_code": "DZ",
    "lat": 36.7753,
    "lng": 3.0588,
    "port_type": "seaport",
    "size": "medium",
    "annual_teu": 600000,
    "region": "Africa",
    "timezone": "Africa/Algiers"
  },
  {
    "locode": "MUPMB",
    "name": "Port Louis",
    "country": "Mauritius",
    "country_code": "MU",
    "lat": -20.1622,
    "lng": 57.4912,
    "port_type": "seaport",
    "size": "medium",
    "annual_teu": 400000,
    "region": "Africa",
    "timezone": "Indian/Mauritius"
  },
  {
    "locode": "MGDIE",
    "name": "Toamasina (Tamatave)",
    "country": "Madagascar",
    "country_code": "MG",
    "lat": -18.1443,
    "lng": 49.397,
    "port_type": "seaport",
    "size": "small",
    "annual_teu": 200000,
    "region": "Africa",
    "timezone": "Indian/Antananarivo"
  },
  {
    "locode": "SDPZM",
    "name": "Port Sudan",
    "country": "Sudan",
    "country_code": "SD",
    "lat": 19.6163,
    "lng": 37.2171,
    "port_type": "seaport",
    "size": "medium",
    "annual_teu": 500000,
    "region": "Africa",
    "timezone": "Africa/Khartoum"
  },
  {
    "locode": "GAGBV",
    "name": "Libreville (Owendo)",
    "country": "Gabon",
    "country_code": "GA",
    "lat": 0.3047,
    "lng": 9.4841,
    "port_type": "seaport",
    "size": "small",
    "annual_teu": 150000,
    "region": "Africa",
    "timezone": "Africa/Libreville"
  },
  {
    "locode": "GNCKY",
    "name": "Conakry",
    "country": "Guinea",
    "country_code": "GN",
    "lat": 9.5093,
    "lng": -13.7122,
    "port_type": "seaport",
    "size": "small",
    "annual_teu": 200000,
    "region": "Africa",
    "timezone": "Africa/Conakry"
  },
  {
    "locode": "CDMAT",
    "name": "Matadi",
    "country": "DR Congo",
    "country_code": "CD",
    "lat": -5.8186,
    "lng": 13.4604,
    "port_type": "seaport",
    "size": "small",
    "annual_teu": 150000,
    "region": "Africa",
    "timezone": "Africa/Kinshasa"
  },
  {
    "locode": "ETADD",
    "name": "Djibouti (Ethiopian corridor)",
    "country": "Ethiopia",
    "country_code": "ET",
    "lat": 11.588,
    "lng": 43.1508,
    "port_type": "seaport",
    "size": "medium",
    "annual_teu": 600000,
    "region": "Africa",
    "timezone": "Africa/Addis_Ababa"
  },
  {
    "locode": "BRSSZ",
    "name": "Santos",
    "country": "Brazil",
    "country_code": "BR",
    "lat": -23.9542,
    "lng": -46.3082,
    "port_type": "seaport",
    "size": "mega",
    "annual_teu": 4800000,
    "region": "South America",
    "timezone": "America/Sao_Paulo"
  },
  {
    "locode": "COBUN",
    "name": "Buenaventura",
    "country": "Colombia",
    "country_code": "CO",
    "lat": 3.8982,
    "lng": -77.02,
    "port_type": "seaport",
    "size": "large",
    "annual_teu": 1400000,
    "region": "South America",
    "timezone": "America/Bogota"
  },
  {
    "locode": "COCTG",
    "name": "Cartagena",
    "country": "Colombia",
    "country_code": "CO",
    "lat": 10.3997,
    "lng": -75.5143,
    "port_type": "seaport",
    "size": "large",
    "annual_teu": 3200000,
    "region": "South America",
    "timezone": "America/Bogota"
  },
  {
    "locode": "CLSAI",
    "name": "San Antonio",
    "country": "Chile",
    "country_code": "CL",
    "lat": -33.5934,
    "lng": -71.614,
    "port_type": "seaport",
    "size": "large",
    "annual_teu": 1600000,
    "region": "South America",
    "timezone": "America/Santiago"
  },
  {
    "locode": "CLVAP",
    "name": "Valparaiso",
    "country": "Chile",
    "country_code": "CL",
    "lat": -33.0472,
    "lng": -71.6127,
    "port_type": "seaport",
    "size": "large",
    "annual_teu": 900000,
    "region": "South America",
    "timezone": "America/Santiago"
  },
  {
    "locode": "PECLL",
    "name": "Callao (Lima)",
    "country": "Peru",
    "country_code": "PE",
    "lat": -12.0432,
    "lng": -77.1268,
    "port_type": "seaport",
    "size": "large",
    "annual_teu": 2600000,
    "region": "South America",
    "timezone": "America/Lima"
  },
  {
    "locode": "ECGYE",
    "name": "Guayaquil",
    "country": "Ecuador",
    "country_code": "EC",
    "lat": -2.2173,
    "lng": -79.892,
    "port_type": "seaport",
    "size": "large",
    "annual_teu": 2000000,
    "region": "South America",
    "timezone": "America/Guayaquil"
  },
  {
    "locode": "ARBUE",
    "name": "Buenos Aires",
    "country": "Argentina",
    "country_code": "AR",
    "lat": -34.5804,
    "lng": -58.3753,
    "port_type": "seaport",
    "size": "large",
    "annual_teu": 1800000,
    "region": "South America",
    "timezone": "America/Argentina/Buenos_Aires"
  },
  {
    "locode": "UYMVD",
    "name": "Montevideo",
    "country": "Uruguay",
    "country_code": "UY",
    "lat": -34.8556,
    "lng": -56.2116,
    "port_type": "seaport",
    "size": "medium",
    "annual_teu": 900000,
    "region": "South America",
    "timezone": "America/Montevideo"
  },
  {
    "locode": "BRPNG",
    "name": "Paranagua",
    "country": "Brazil",
    "country_code": "BR",
    "lat": -25.5205,
    "lng": -48.5095,
    "port_type": "seaport",
    "size": "large",
    "annual_teu": 1100000,
    "region": "South America",
    "timezone": "America/Sao_Paulo"
  },
  {
    "locode": "BRITJ",
    "name": "Itajai (Navegantes)",
    "country": "Brazil",
    "country_code": "BR",
    "lat": -26.8969,
    "lng": -48.6644,
    "port_type": "seaport",
    "size": "large",
    "annual_teu": 1200000,
    "region": "South America",
    "timezone": "America/Sao_Paulo"
  },
  {
    "locode": "BRRGI",
    "name": "Rio Grande",
    "country": "Brazil",
    "country_code": "BR",
    "lat": -32.0525,
    "lng": -52.1164,
    "port_type": "seaport",
    "size": "medium",
    "annual_teu": 700000,
    "region": "South America",
    "timezone": "America/Sao_Paulo"
  },
  {
    "locode": "BRREC",
    "name": "Recife (Suape)",
    "country": "Brazil",
    "country_code": "BR",
    "lat": -8.3943,
    "lng": -34.9558,
    "port_type": "seaport",
    "size": "medium",
    "annual_teu": 500000,
    "region": "South America",
    "timezone": "America/Recife"
  },
  {
    "locode": "BRRIO",
    "name": "Rio de Janeiro",
    "country": "Brazil",
    "country_code": "BR",
    "lat": -22.8988,
    "lng": -43.1729,
    "port_type": "seaport",
    "size": "medium",
    "annual_teu": 600000,
    "region": "South America",
    "timezone": "America/Sao_Paulo"
  },
  {
    "locode": "BRMAN",
    "name": "Manaus",
    "country": "Brazil",
    "country_code": "BR",
    "lat": -3.119,
    "lng": -60.0217,
    "port_type": "seaport",
    "size": "medium",
    "annual_teu": 400000,
    "region": "South America",
    "timezone": "America/Manaus"
  },
  {
    "locode": "VEGIG",
    "name": "La Guaira",
    "country": "Venezuela",
    "country_code": "VE",
    "lat": 10.6088,
    "lng": -66.9341,
    "port_type": "seaport",
    "size": "medium",
    "annual_teu": 350000,
    "region": "South America",
    "timezone": "America/Caracas"
  },
  {
    "locode": "GYGRG",
    "name": "Georgetown",
    "country": "Guyana",
    "country_code": "GY",
    "lat": 6.8013,
    "lng": -58.1553,
    "port_type": "seaport",
    "size": "small",
    "annual_teu": 50000,
    "region": "South America",
    "timezone": "America/Guyana"
  },
  {
    "locode": "SRPBM",
    "name": "Paramaribo (Nieuwe Haven)",
    "country": "Suriname",
    "country_code": "SR",
    "lat": 5.852,
    "lng": -55.1667,
    "port_type": "seaport",
    "size": "small",
    "annual_teu": 40000,
    "region": "South America",
    "timezone": "America/Paramaribo"
  },
  {
    "locode": "INNSA",
    "name": "Jawaharlal Nehru (Nhava Sheva)",
    "country": "India",
    "country_code": "IN",
    "lat": 18.95,
    "lng": 72.951,
    "port_type": "seaport",
    "size": "mega",
    "annual_teu": 6000000,
    "region": "South Asia",
    "timezone": "Asia/Kolkata"
  },
  {
    "locode": "INMUN",
    "name": "Mundra",
    "country": "India",
    "country_code": "IN",
    "lat": 22.8396,
    "lng": 69.714,
    "port_type": "seaport",
    "size": "mega",
    "annual_teu": 7500000,
    "region": "South Asia",
    "timezone": "Asia/Kolkata"
  },
  {
    "locode": "INMAA",
    "name": "Chennai (Ennore)",
    "country": "India",
    "country_code": "IN",
    "lat": 13.0827,
    "lng": 80.2707,
    "port_type": "seaport",
    "size": "large",
    "annual_teu": 1600000,
    "region": "South Asia",
    "timezone": "Asia/Kolkata"
  },
  {
    "locode": "INCCU",
    "name": "Kolkata (Haldia)",
    "country": "India",
    "country_code": "IN",
    "lat": 22.0307,
    "lng": 88.0643,
    "port_type": "seaport",
    "size": "large",
    "annual_teu": 800000,
    "region": "South Asia",
    "timezone": "Asia/Kolkata"
  },
  {
    "locode": "INVTZ",
    "name": "Visakhapatnam",
    "country": "India",
    "country_code": "IN",
    "lat": 17.6868,
    "lng": 83.2185,
    "port_type": "seaport",
    "size": "medium",
    "annual_teu": 500000,
    "region": "South Asia",
    "timezone": "Asia/Kolkata"
  },
  {
    "locode": "INCOK",
    "name": "Cochin (Kochi)",
    "country": "India",
    "country_code": "IN",
    "lat": 9.9312,
    "lng": 76.2673,
    "port_type": "seaport",
    "size": "large",
    "annual_teu": 700000,
    "region": "South Asia",
    "timezone": "Asia/Kolkata"
  },
  {
    "locode": "INTUT",
    "name": "Tuticorin (V.O. Chidambaranar)",
    "country": "India",
    "country_code": "IN",
    "lat": 8.7642,
    "lng": 78.1348,
    "port_type": "seaport",
    "size": "medium",
    "annual_teu": 800000,
    "region": "South Asia",
    "timezone": "Asia/Kolkata"
  },
  {
    "locode": "INKRI",
    "name": "Krishnapatnam",
    "country": "India",
    "country_code": "IN",
    "lat": 14.256,
    "lng": 80.1176,
    "port_type": "seaport",
    "size": "medium",
    "annual_teu": 600000,
    "region": "South Asia",
    "timezone": "Asia/Kolkata"
  },
  {
    "locode": "INGOA",
    "name": "Mormugao (Goa)",
    "country": "India",
    "country_code": "IN",
    "lat": 15.4042,
    "lng": 73.8047,
    "port_type": "seaport",
    "size": "small",
    "annual_teu": 100000,
    "region": "South Asia",
    "timezone": "Asia/Kolkata"
  },
  {
    "locode": "INNML",
    "name": "New Mangalore",
    "country": "India",
    "country_code": "IN",
    "lat": 12.9141,
    "lng": 74.856,
    "port_type": "seaport",
    "size": "small",
    "annual_teu": 200000,
    "region": "South Asia",
    "timezone": "Asia/Kolkata"
  },
  {
    "locode": "INPAV",
    "name": "Pipavav",
    "country": "India",
    "country_code": "IN",
    "lat": 20.906,
    "lng": 71.5262,
    "port_type": "seaport",
    "size": "medium",
    "annual_teu": 400000,
    "region": "South Asia",
    "timezone": "Asia/Kolkata"
  },
  {
    "locode": "INKAN",
    "name": "Kandla",
    "country": "India",
    "country_code": "IN",
    "lat": 23.0286,
    "lng": 70.2209,
    "port_type": "seaport",
    "size": "medium",
    "annual_teu": 300000,
    "region": "South Asia",
    "timezone": "Asia/Kolkata"
  },
  {
    "locode": "BDCGP",
    "name": "Chittagong",
    "country": "Bangladesh",
    "country_code": "BD",
    "lat": 22.3475,
    "lng": 91.8123,
    "port_type": "seaport",
    "size": "large",
    "annual_teu": 3200000,
    "region": "South Asia",
    "timezone": "Asia/Dhaka"
  },
  {
    "locode": "LKCMB",
    "name": "Colombo",
    "country": "Sri Lanka",
    "country_code": "LK",
    "lat": 6.9388,
    "lng": 79.8463,
    "port_type": "seaport",
    "size": "large",
    "annual_teu": 7200000,
    "region": "South Asia",
    "timezone": "Asia/Colombo"
  },
  {
    "locode": "PKBIN",
    "name": "Karachi (Bin Qasim)",
    "country": "Pakistan",
    "country_code": "PK",
    "lat": 24.7912,
    "lng": 67.3434,
    "port_type": "seaport",
    "size": "large",
    "annual_teu": 2200000,
    "region": "South Asia",
    "timezone": "Asia/Karachi"
  },
  {
    "locode": "PKKHI",
    "name": "Karachi (KICT)",
    "country": "Pakistan",
    "country_code": "PK",
    "lat": 24.8465,
    "lng": 66.9829,
    "port_type": "seaport",
    "size": "large",
    "annual_teu": 1800000,
    "region": "South Asia",
    "timezone": "Asia/Karachi"
  },
  {
    "locode": "MVMLE",
    "name": "Male (Maldives)",
    "country": "Maldives",
    "country_code": "MV",
    "lat": 4.1755,
    "lng": 73.5093,
    "port_type": "seaport",
    "size": "small",
    "annual_teu": 30000,
    "region": "South Asia",
    "timezone": "Indian/Maldives"
  },
  {
    "locode": "NPICD",
    "name": "Birgunj (Nepal ICD)",
    "country": "Nepal",
    "country_code": "NP",
    "lat": 27.0104,
    "lng": 84.877,
    "port_type": "seaport",
    "size": "small",
    "annual_teu": 20000,
    "region": "South Asia",
    "timezone": "Asia/Kathmandu"
  },
  {
    "locode": "AUMEL",
    "name": "Melbourne",
    "country": "Australia",
    "country_code": "AU",
    "lat": -37.8265,
    "lng": 144.9412,
    "port_type": "seaport",
    "size": "large",
    "annual_teu": 3000000,
    "region": "Oceania",
    "timezone": "Australia/Melbourne"
  },
  {
    "locode": "AUSYD",
    "name": "Sydney (Port Botany)",
    "country": "Australia",
    "country_code": "AU",
    "lat": -33.9706,
    "lng": 151.2056,
    "port_type": "seaport",
    "size": "large",
    "annual_teu": 2700000,
    "region": "Oceania",
    "timezone": "Australia/Sydney"
  },
  {
    "locode": "AUBNE",
    "name": "Brisbane",
    "country": "Australia",
    "country_code": "AU",
    "lat": -27.3649,
    "lng": 153.1287,
    "port_type": "seaport",
    "size": "large",
    "annual_teu": 1400000,
    "region": "Oceania",
    "timezone": "Australia/Brisbane"
  },
  {
    "locode": "AUFRE",
    "name": "Fremantle (Perth)",
    "country": "Australia",
    "country_code": "AU",
    "lat": -32.0569,
    "lng": 115.7439,
    "port_type": "seaport",
    "size": "medium",
    "annual_teu": 800000,
    "region": "Oceania",
    "timezone": "Australia/Perth"
  },
  {
    "locode": "AUADL",
    "name": "Adelaide",
    "country": "Australia",
    "country_code": "AU",
    "lat": -34.7831,
    "lng": 138.51,
    "port_type": "seaport",
    "size": "medium",
    "annual_teu": 400000,
    "region": "Oceania",
    "timezone": "Australia/Adelaide"
  },
  {
    "locode": "AUTOW",
    "name": "Townsville",
    "country": "Australia",
    "country_code": "AU",
    "lat": -19.259,
    "lng": 146.8169,
    "port_type": "seaport",
    "size": "small",
    "annual_teu": 100000,
    "region": "Oceania",
    "timezone": "Australia/Brisbane"
  },
  {
    "locode": "AUDRW",
    "name": "Darwin",
    "country": "Australia",
    "country_code": "AU",
    "lat": -12.4634,
    "lng": 130.8456,
    "port_type": "seaport",
    "size": "small",
    "annual_teu": 50000,
    "region": "Oceania",
    "timezone": "Australia/Darwin"
  },
  {
    "locode": "NZAKL",
    "name": "Auckland",
    "country": "New Zealand",
    "country_code": "NZ",
    "lat": -36.8426,
    "lng": 174.7648,
    "port_type": "seaport",
    "size": "large",
    "annual_teu": 1000000,
    "region": "Oceania",
    "timezone": "Pacific/Auckland"
  },
  {
    "locode": "NZTRG",
    "name": "Tauranga",
    "country": "New Zealand",
    "country_code": "NZ",
    "lat": -37.6534,
    "lng": 176.1847,
    "port_type": "seaport",
    "size": "medium",
    "annual_teu": 1200000,
    "region": "Oceania",
    "timezone": "Pacific/Auckland"
  },
  {
    "locode": "NZLYT",
    "name": "Lyttelton (Christchurch)",
    "country": "New Zealand",
    "country_code": "NZ",
    "lat": -43.605,
    "lng": 172.719,
    "port_type": "seaport",
    "size": "small",
    "annual_teu": 400000,
    "region": "Oceania",
    "timezone": "Pacific/Auckland"
  },
  {
    "locode": "PGPOM",
    "name": "Port Moresby (Motukea)",
    "country": "Papua New Guinea",
    "country_code": "PG",
    "lat": -9.4438,
    "lng": 147.1803,
    "port_type": "seaport",
    "size": "small",
    "annual_teu": 100000,
    "region": "Oceania",
    "timezone": "Pacific/Port_Moresby"
  },
  {
    "locode": "FJSUV",
    "name": "Suva",
    "country": "Fiji",
    "country_code": "FJ",
    "lat": -18.1416,
    "lng": 178.4419,
    "port_type": "seaport",
    "size": "small",
    "annual_teu": 50000,
    "region": "Oceania",
    "timezone": "Pacific/Fiji"
  },
  {
    "locode": "PAMIT",
    "name": "Manzanillo (Panama)",
    "country": "Panama",
    "country_code": "PA",
    "lat": 9.355,
    "lng": -79.8786,
    "port_type": "seaport",
    "size": "mega",
    "annual_teu": 3300000,
    "region": "Central America",
    "timezone": "America/Panama"
  },
  {
    "locode": "PABLB",
    "name": "Balboa",
    "country": "Panama",
    "country_code": "PA",
    "lat": 8.9486,
    "lng": -79.5641,
    "port_type": "seaport",
    "size": "large",
    "annual_teu": 3100000,
    "region": "Central America",
    "timezone": "America/Panama"
  },
  {
    "locode": "PACOL",
    "name": "Colon (Cristobal)",
    "country": "Panama",
    "country_code": "PA",
    "lat": 9.3523,
    "lng": -79.8987,
    "port_type": "seaport",
    "size": "large",
    "annual_teu": 2000000,
    "region": "Central America",
    "timezone": "America/Panama"
  },
  {
    "locode": "MXMAN",
    "name": "Manzanillo (Mexico)",
    "country": "Mexico",
    "country_code": "MX",
    "lat": 19.057,
    "lng": -104.3117,
    "port_type": "seaport",
    "size": "large",
    "annual_teu": 3500000,
    "region": "Central America",
    "timezone": "America/Mexico_City"
  },
  {
    "locode": "MXLZC",
    "name": "Lazaro Cardenas",
    "country": "Mexico",
    "country_code": "MX",
    "lat": 17.9431,
    "lng": -102.1777,
    "port_type": "seaport",
    "size": "large",
    "annual_teu": 1500000,
    "region": "Central America",
    "timezone": "America/Mexico_City"
  },
  {
    "locode": "MXVER",
    "name": "Veracruz",
    "country": "Mexico",
    "country_code": "MX",
    "lat": 19.2027,
    "lng": -96.1375,
    "port_type": "seaport",
    "size": "large",
    "annual_teu": 1200000,
    "region": "Central America",
    "timezone": "America/Mexico_City"
  },
  {
    "locode": "MXALT",
    "name": "Altamira",
    "country": "Mexico",
    "country_code": "MX",
    "lat": 22.405,
    "lng": -97.8994,
    "port_type": "seaport",
    "size": "medium",
    "annual_teu": 800000,
    "region": "Central America",
    "timezone": "America/Mexico_City"
  },
  {
    "locode": "JMKIN",
    "name": "Kingston",
    "country": "Jamaica",
    "country_code": "JM",
    "lat": 17.9714,
    "lng": -76.8428,
    "port_type": "seaport",
    "size": "large",
    "annual_teu": 1800000,
    "region": "Caribbean",
    "timezone": "America/Jamaica"
  },
  {
    "locode": "DOHIG",
    "name": "Caucedo (Santo Domingo)",
    "country": "Dominican Republic",
    "country_code": "DO",
    "lat": 18.4287,
    "lng": -69.6221,
    "port_type": "seaport",
    "size": "large",
    "annual_teu": 1400000,
    "region": "Caribbean",
    "timezone": "America/Santo_Domingo"
  },
  {
    "locode": "BSFPO",
    "name": "Freeport (Bahamas)",
    "country": "Bahamas",
    "country_code": "BS",
    "lat": 26.5285,
    "lng": -78.7667,
    "port_type": "seaport",
    "size": "large",
    "annual_teu": 1500000,
    "region": "Caribbean",
    "timezone": "America/Nassau"
  },
  {
    "locode": "TTPOS",
    "name": "Port of Spain",
    "country": "Trinidad and Tobago",
    "country_code": "TT",
    "lat": 10.6296,
    "lng": -61.4789,
    "port_type": "seaport",
    "size": "medium",
    "annual_teu": 500000,
    "region": "Caribbean",
    "timezone": "America/Port_of_Spain"
  },
  {
    "locode": "GTPRQ",
    "name": "Puerto Quetzal",
    "country": "Guatemala",
    "country_code": "GT",
    "lat": 13.9239,
    "lng": -90.788,
    "port_type": "seaport",
    "size": "medium",
    "annual_teu": 300000,
    "region": "Central America",
    "timezone": "America/Guatemala"
  },
  {
    "locode": "HNPCR",
    "name": "Puerto Cortes",
    "country": "Honduras",
    "country_code": "HN",
    "lat": 15.8444,
    "lng": -87.9553,
    "port_type": "seaport",
    "size": "medium",
    "annual_teu": 500000,
    "region": "Central America",
    "timezone": "America/Tegucigalpa"
  },
  {
    "locode": "CRHAV",
    "name": "Puerto Limon (Moin)",
    "country": "Costa Rica",
    "country_code": "CR",
    "lat": 10.0015,
    "lng": -83.0779,
    "port_type": "seaport",
    "size": "medium",
    "annual_teu": 400000,
    "region": "Central America",
    "timezone": "America/Costa_Rica"
  },
  {
    "locode": "AWORA",
    "name": "Oranjestad (Aruba)",
    "country": "Aruba",
    "country_code": "AW",
    "lat": 12.5186,
    "lng": -70.0358,
    "port_type": "seaport",
    "size": "small",
    "annual_teu": 50000,
    "region": "Caribbean",
    "timezone": "America/Aruba"
  },
  {
    "locode": "CAVAN",
    "name": "Vancouver",
    "country": "Canada",
    "country_code": "CA",
    "lat": 49.2827,
    "lng": -123.1207,
    "port_type": "seaport",
    "size": "large",
    "annual_teu": 3600000,
    "region": "North America",
    "timezone": "America/Vancouver"
  },
  {
    "locode": "CAMTR",
    "name": "Montreal",
    "country": "Canada",
    "country_code": "CA",
    "lat": 45.5017,
    "lng": -73.5673,
    "port_type": "seaport",
    "size": "large",
    "annual_teu": 1700000,
    "region": "North America",
    "timezone": "America/Montreal"
  },
  {
    "locode": "CAPRR",
    "name": "Prince Rupert",
    "country": "Canada",
    "country_code": "CA",
    "lat": 54.315,
    "lng": -130.3208,
    "port_type": "seaport",
    "size": "medium",
    "annual_teu": 1400000,
    "region": "North America",
    "timezone": "America/Vancouver"
  },
  {
    "locode": "CAHAL",
    "name": "Halifax",
    "country": "Canada",
    "country_code": "CA",
    "lat": 44.6488,
    "lng": -63.5752,
    "port_type": "seaport",
    "size": "medium",
    "annual_teu": 600000,
    "region": "North America",
    "timezone": "America/Halifax"
  },
  {
    "locode": "CATOR",
    "name": "Toronto (Hamilton)",
    "country": "Canada",
    "country_code": "CA",
    "lat": 43.2557,
    "lng": -79.8711,
    "port_type": "seaport",
    "size": "small",
    "annual_teu": 200000,
    "region": "North America",
    "timezone": "America/Toronto"
  },
  {
    "locode": "CASTJ",
    "name": "Saint John (NB)",
    "country": "Canada",
    "country_code": "CA",
    "lat": 45.2733,
    "lng": -66.0633,
    "port_type": "seaport",
    "size": "small",
    "annual_teu": 100000,
    "region": "North America",
    "timezone": "America/Moncton"
  },
  {
    "locode": "CANAN",
    "name": "Nanaimo",
    "country": "Canada",
    "country_code": "CA",
    "lat": 49.1659,
    "lng": -123.9401,
    "port_type": "seaport",
    "size": "small",
    "annual_teu": 50000,
    "region": "North America",
    "timezone": "America/Vancouver"
  },
  {
    "locode": "CASCR",
    "name": "Sept-Iles",
    "country": "Canada",
    "country_code": "CA",
    "lat": 50.2151,
    "lng": -66.3753,
    "port_type": "seaport",
    "size": "small",
    "annual_teu": 30000,
    "region": "North America",
    "timezone": "America/Montreal"
  },
  {
    "locode": "CNSSN",
    "name": "Sansha",
    "country": "China",
    "country_code": "CN",
    "lat": 16.8347,
    "lng": 112.344,
    "port_type": "seaport",
    "size": "small",
    "annual_teu": 50000,
    "region": "East Asia",
    "timezone": "Asia/Shanghai"
  },
  {
    "locode": "CNLUZ",
    "name": "Luzhou",
    "country": "China",
    "country_code": "CN",
    "lat": 28.8717,
    "lng": 105.4425,
    "port_type": "seaport",
    "size": "small",
    "annual_teu": 100000,
    "region": "East Asia",
    "timezone": "Asia/Shanghai"
  },
  {
    "locode": "CNYZH",
    "name": "Yueyang",
    "country": "China",
    "country_code": "CN",
    "lat": 29.3565,
    "lng": 113.099,
    "port_type": "seaport",
    "size": "small",
    "annual_teu": 150000,
    "region": "East Asia",
    "timezone": "Asia/Shanghai"
  },
  {
    "locode": "CNZOS",
    "name": "Zhongshan",
    "country": "China",
    "country_code": "CN",
    "lat": 22.5179,
    "lng": 113.3926,
    "port_type": "seaport",
    "size": "small",
    "annual_teu": 200000,
    "region": "East Asia",
    "timezone": "Asia/Shanghai"
  },
  {
    "locode": "CNCZX",
    "name": "Changzhou",
    "country": "China",
    "country_code": "CN",
    "lat": 31.8118,
    "lng": 119.9742,
    "port_type": "seaport",
    "size": "small",
    "annual_teu": 100000,
    "region": "East Asia",
    "timezone": "Asia/Shanghai"
  },
  {
    "locode": "VNHCM",
    "name": "Ho Chi Minh (Hiep Phuoc)",
    "country": "Vietnam",
    "country_code": "VN",
    "lat": 10.6697,
    "lng": 106.741,
    "port_type": "seaport",
    "size": "large",
    "annual_teu": 2500000,
    "region": "SE Asia",
    "timezone": "Asia/Ho_Chi_Minh"
  },
  {
    "locode": "MYMLK",
    "name": "Malacca",
    "country": "Malaysia",
    "country_code": "MY",
    "lat": 2.1896,
    "lng": 102.2501,
    "port_type": "seaport",
    "size": "small",
    "annual_teu": 100000,
    "region": "SE Asia",
    "timezone": "Asia/Kuala_Lumpur"
  },
  {
    "locode": "IDAMQ",
    "name": "Ambon",
    "country": "Indonesia",
    "country_code": "ID",
    "lat": -3.6954,
    "lng": 128.1814,
    "port_type": "seaport",
    "size": "small",
    "annual_teu": 100000,
    "region": "SE Asia",
    "timezone": "Asia/Jayapura"
  },
  {
    "locode": "IDJAY",
    "name": "Jayapura",
    "country": "Indonesia",
    "country_code": "ID",
    "lat": -2.5916,
    "lng": 140.669,
    "port_type": "seaport",
    "size": "small",
    "annual_teu": 50000,
    "region": "SE Asia",
    "timezone": "Asia/Jayapura"
  },
  {
    "locode": "IDMDC",
    "name": "Manado",
    "country": "Indonesia",
    "country_code": "ID",
    "lat": 1.4748,
    "lng": 124.8421,
    "port_type": "seaport",
    "size": "small",
    "annual_teu": 80000,
    "region": "SE Asia",
    "timezone": "Asia/Makassar"
  },
  {
    "locode": "IDBDJ",
    "name": "Benoa (Bali)",
    "country": "Indonesia",
    "country_code": "ID",
    "lat": -8.7454,
    "lng": 115.2118,
    "port_type": "seaport",
    "size": "small",
    "annual_teu": 50000,
    "region": "SE Asia",
    "timezone": "Asia/Makassar"
  },
  {
    "locode": "IDKNG",
    "name": "Kendari",
    "country": "Indonesia",
    "country_code": "ID",
    "lat": -3.9985,
    "lng": 122.513,
    "port_type": "seaport",
    "size": "small",
    "annual_teu": 60000,
    "region": "SE Asia",
    "timezone": "Asia/Makassar"
  },
  {
    "locode": "IDSAM",
    "name": "Samarinda",
    "country": "Indonesia",
    "country_code": "ID",
    "lat": -0.5022,
    "lng": 117.1536,
    "port_type": "seaport",
    "size": "small",
    "annual_teu": 150000,
    "region": "SE Asia",
    "timezone": "Asia/Makassar"
  },
  {
    "locode": "PHILO",
    "name": "Iloilo",
    "country": "Philippines",
    "country_code": "PH",
    "lat": 10.7202,
    "lng": 122.5621,
    "port_type": "seaport",
    "size": "small",
    "annual_teu": 150000,
    "region": "SE Asia",
    "timezone": "Asia/Manila"
  },
  {
    "locode": "PHZAM",
    "name": "Zamboanga",
    "country": "Philippines",
    "country_code": "PH",
    "lat": 6.9214,
    "lng": 122.079,
    "port_type": "seaport",
    "size": "small",
    "annual_teu": 100000,
    "region": "SE Asia",
    "timezone": "Asia/Manila"
  },
  {
    "locode": "PHCAG",
    "name": "Cagayan de Oro",
    "country": "Philippines",
    "country_code": "PH",
    "lat": 8.4542,
    "lng": 124.6319,
    "port_type": "seaport",
    "size": "small",
    "annual_teu": 120000,
    "region": "SE Asia",
    "timezone": "Asia/Manila"
  },
  {
    "locode": "PHGEN",
    "name": "General Santos",
    "country": "Philippines",
    "country_code": "PH",
    "lat": 6.1164,
    "lng": 125.1716,
    "port_type": "seaport",
    "size": "small",
    "annual_teu": 80000,
    "region": "SE Asia",
    "timezone": "Asia/Manila"
  },
  {
    "locode": "THSRI",
    "name": "Sriracha",
    "country": "Thailand",
    "country_code": "TH",
    "lat": 13.1683,
    "lng": 100.9265,
    "port_type": "seaport",
    "size": "small",
    "annual_teu": 100000,
    "region": "SE Asia",
    "timezone": "Asia/Bangkok"
  },
  {
    "locode": "LAKGN",
    "name": "Vientiane (ICD)",
    "country": "Laos",
    "country_code": "LA",
    "lat": 17.9757,
    "lng": 102.6331,
    "port_type": "seaport",
    "size": "small",
    "annual_teu": 30000,
    "region": "SE Asia",
    "timezone": "Asia/Vientiane"
  },
  {
    "locode": "JPWKJ",
    "name": "Wakayama",
    "country": "Japan",
    "country_code": "JP",
    "lat": 34.226,
    "lng": 135.1675,
    "port_type": "seaport",
    "size": "small",
    "annual_teu": 100000,
    "region": "East Asia",
    "timezone": "Asia/Tokyo"
  },
  {
    "locode": "JPTKM",
    "name": "Tokuyama",
    "country": "Japan",
    "country_code": "JP",
    "lat": 34.0505,
    "lng": 131.8069,
    "port_type": "seaport",
    "size": "small",
    "annual_teu": 50000,
    "region": "East Asia",
    "timezone": "Asia/Tokyo"
  },
  {
    "locode": "JPFUJ",
    "name": "Fujisawa",
    "country": "Japan",
    "country_code": "JP",
    "lat": 35.3441,
    "lng": 139.4868,
    "port_type": "seaport",
    "size": "small",
    "annual_teu": 30000,
    "region": "East Asia",
    "timezone": "Asia/Tokyo"
  },
  {
    "locode": "JPMIZ",
    "name": "Mizushima",
    "country": "Japan",
    "country_code": "JP",
    "lat": 34.5211,
    "lng": 133.7567,
    "port_type": "seaport",
    "size": "small",
    "annual_teu": 60000,
    "region": "East Asia",
    "timezone": "Asia/Tokyo"
  },
  {
    "locode": "JPOIT",
    "name": "Oita",
    "country": "Japan",
    "country_code": "JP",
    "lat": 33.2381,
    "lng": 131.6126,
    "port_type": "seaport",
    "size": "small",
    "annual_teu": 40000,
    "region": "East Asia",
    "timezone": "Asia/Tokyo"
  },
  {
    "locode": "KRKUV",
    "name": "Kunsan",
    "country": "South Korea",
    "country_code": "KR",
    "lat": 35.9828,
    "lng": 126.7116,
    "port_type": "seaport",
    "size": "small",
    "annual_teu": 100000,
    "region": "East Asia",
    "timezone": "Asia/Seoul"
  },
  {
    "locode": "KRPOH",
    "name": "Pohang",
    "country": "South Korea",
    "country_code": "KR",
    "lat": 36.019,
    "lng": 129.3435,
    "port_type": "seaport",
    "size": "small",
    "annual_teu": 100000,
    "region": "East Asia",
    "timezone": "Asia/Seoul"
  },
  {
    "locode": "KRTAE",
    "name": "Donghae",
    "country": "South Korea",
    "country_code": "KR",
    "lat": 37.5244,
    "lng": 129.1141,
    "port_type": "seaport",
    "size": "small",
    "annual_teu": 50000,
    "region": "East Asia",
    "timezone": "Asia/Seoul"
  },
  {
    "locode": "TWKEE",
    "name": "Keelung (Suao)",
    "country": "Taiwan",
    "country_code": "TW",
    "lat": 24.5974,
    "lng": 121.8598,
    "port_type": "seaport",
    "size": "small",
    "annual_teu": 200000,
    "region": "East Asia",
    "timezone": "Asia/Taipei"
  },
  {
    "locode": "DEWVN",
    "name": "Wilhelmshaven (JadeWeserPort)",
    "country": "Germany",
    "country_code": "DE",
    "lat": 53.5195,
    "lng": 8.1426,
    "port_type": "seaport",
    "size": "large",
    "annual_teu": 700000,
    "region": "Europe",
    "timezone": "Europe/Berlin"
  },
  {
    "locode": "DEECK",
    "name": "Eckernforde",
    "country": "Germany",
    "country_code": "DE",
    "lat": 54.4742,
    "lng": 9.8381,
    "port_type": "seaport",
    "size": "small",
    "annual_teu": 20000,
    "region": "Europe",
    "timezone": "Europe/Berlin"
  },
  {
    "locode": "DELBC",
    "name": "Lubeck",
    "country": "Germany",
    "country_code": "DE",
    "lat": 53.8655,
    "lng": 10.6866,
    "port_type": "seaport",
    "size": "small",
    "annual_teu": 100000,
    "region": "Europe",
    "timezone": "Europe/Berlin"
  },
  {
    "locode": "DERSK",
    "name": "Rostock",
    "country": "Germany",
    "country_code": "DE",
    "lat": 54.1455,
    "lng": 12.0998,
    "port_type": "seaport",
    "size": "small",
    "annual_teu": 50000,
    "region": "Europe",
    "timezone": "Europe/Berlin"
  },
  {
    "locode": "FRNTE",
    "name": "Nantes-Saint Nazaire",
    "country": "France",
    "country_code": "FR",
    "lat": 47.2839,
    "lng": -1.5658,
    "port_type": "seaport",
    "size": "medium",
    "annual_teu": 300000,
    "region": "Europe",
    "timezone": "Europe/Paris"
  },
  {
    "locode": "FRDKK",
    "name": "Dunkirk",
    "country": "France",
    "country_code": "FR",
    "lat": 51.0504,
    "lng": 2.3769,
    "port_type": "seaport",
    "size": "medium",
    "annual_teu": 400000,
    "region": "Europe",
    "timezone": "Europe/Paris"
  },
  {
    "locode": "FRBOD",
    "name": "Bordeaux",
    "country": "France",
    "country_code": "FR",
    "lat": 44.8378,
    "lng": -0.5792,
    "port_type": "seaport",
    "size": "small",
    "annual_teu": 50000,
    "region": "Europe",
    "timezone": "Europe/Paris"
  },
  {
    "locode": "ESLPA",
    "name": "Las Palmas",
    "country": "Spain",
    "country_code": "ES",
    "lat": 28.1248,
    "lng": -15.43,
    "port_type": "seaport",
    "size": "medium",
    "annual_teu": 600000,
    "region": "Europe",
    "timezone": "Atlantic/Canary"
  },
  {
    "locode": "ESBIO",
    "name": "Bilbao",
    "country": "Spain",
    "country_code": "ES",
    "lat": 43.3483,
    "lng": -3.0244,
    "port_type": "seaport",
    "size": "medium",
    "annual_teu": 600000,
    "region": "Europe",
    "timezone": "Europe/Madrid"
  },
  {
    "locode": "ESMRS",
    "name": "Malaga",
    "country": "Spain",
    "country_code": "ES",
    "lat": 36.7213,
    "lng": -4.4214,
    "port_type": "seaport",
    "size": "small",
    "annual_teu": 100000,
    "region": "Europe",
    "timezone": "Europe/Madrid"
  },
  {
    "locode": "ESCAR",
    "name": "Cartagena (Spain)",
    "country": "Spain",
    "country_code": "ES",
    "lat": 37.5985,
    "lng": -0.9864,
    "port_type": "seaport",
    "size": "medium",
    "annual_teu": 200000,
    "region": "Europe",
    "timezone": "Europe/Madrid"
  },
  {
    "locode": "PTLEI",
    "name": "Leixoes (Porto)",
    "country": "Portugal",
    "country_code": "PT",
    "lat": 41.1844,
    "lng": -8.6996,
    "port_type": "seaport",
    "size": "medium",
    "annual_teu": 700000,
    "region": "Europe",
    "timezone": "Europe/Lisbon"
  },
  {
    "locode": "ITSAR",
    "name": "Cagliari",
    "country": "Italy",
    "country_code": "IT",
    "lat": 39.2077,
    "lng": 9.1141,
    "port_type": "seaport",
    "size": "medium",
    "annual_teu": 600000,
    "region": "Europe",
    "timezone": "Europe/Rome"
  },
  {
    "locode": "ITTRS",
    "name": "Trieste",
    "country": "Italy",
    "country_code": "IT",
    "lat": 45.6495,
    "lng": 13.7768,
    "port_type": "seaport",
    "size": "medium",
    "annual_teu": 750000,
    "region": "Europe",
    "timezone": "Europe/Rome"
  },
  {
    "locode": "ITVCE",
    "name": "Venice",
    "country": "Italy",
    "country_code": "IT",
    "lat": 45.4408,
    "lng": 12.3155,
    "port_type": "seaport",
    "size": "small",
    "annual_teu": 200000,
    "region": "Europe",
    "timezone": "Europe/Rome"
  },
  {
    "locode": "ITPAL",
    "name": "Palermo",
    "country": "Italy",
    "country_code": "IT",
    "lat": 38.1257,
    "lng": 13.3615,
    "port_type": "seaport",
    "size": "small",
    "annual_teu": 100000,
    "region": "Europe",
    "timezone": "Europe/Rome"
  },
  {
    "locode": "ITCAT",
    "name": "Catania",
    "country": "Italy",
    "country_code": "IT",
    "lat": 37.5079,
    "lng": 15.0934,
    "port_type": "seaport",
    "size": "small",
    "annual_teu": 80000,
    "region": "Europe",
    "timezone": "Europe/Rome"
  },
  {
    "locode": "GBIMM",
    "name": "Immingham",
    "country": "United Kingdom",
    "country_code": "GB",
    "lat": 53.6336,
    "lng": -0.2176,
    "port_type": "seaport",
    "size": "medium",
    "annual_teu": 200000,
    "region": "Europe",
    "timezone": "Europe/London"
  },
  {
    "locode": "GBTEE",
    "name": "Teesport",
    "country": "United Kingdom",
    "country_code": "GB",
    "lat": 54.615,
    "lng": -1.144,
    "port_type": "seaport",
    "size": "medium",
    "annual_teu": 150000,
    "region": "Europe",
    "timezone": "Europe/London"
  },
  {
    "locode": "GBGRK",
    "name": "Grangemouth",
    "country": "United Kingdom",
    "country_code": "GB",
    "lat": 56.0176,
    "lng": -3.7103,
    "port_type": "seaport",
    "size": "small",
    "annual_teu": 100000,
    "region": "Europe",
    "timezone": "Europe/London"
  },
  {
    "locode": "GBBEL",
    "name": "Belfast",
    "country": "United Kingdom",
    "country_code": "GB",
    "lat": 54.6256,
    "lng": -5.9086,
    "port_type": "seaport",
    "size": "small",
    "annual_teu": 120000,
    "region": "Europe",
    "timezone": "Europe/London"
  },
  {
    "locode": "IEDUB",
    "name": "Dublin",
    "country": "Ireland",
    "country_code": "IE",
    "lat": 53.3426,
    "lng": -6.2197,
    "port_type": "seaport",
    "size": "medium",
    "annual_teu": 800000,
    "region": "Europe",
    "timezone": "Europe/Dublin"
  },
  {
    "locode": "PLGDY",
    "name": "Gdynia",
    "country": "Poland",
    "country_code": "PL",
    "lat": 54.5189,
    "lng": 18.5319,
    "port_type": "seaport",
    "size": "large",
    "annual_teu": 900000,
    "region": "Europe",
    "timezone": "Europe/Warsaw"
  },
  {
    "locode": "PLSZZ",
    "name": "Szczecin",
    "country": "Poland",
    "country_code": "PL",
    "lat": 53.4285,
    "lng": 14.5528,
    "port_type": "seaport",
    "size": "small",
    "annual_teu": 100000,
    "region": "Europe",
    "timezone": "Europe/Warsaw"
  },
  {
    "locode": "NOSVG",
    "name": "Stavanger",
    "country": "Norway",
    "country_code": "NO",
    "lat": 58.97,
    "lng": 5.7331,
    "port_type": "seaport",
    "size": "small",
    "annual_teu": 50000,
    "region": "Europe",
    "timezone": "Europe/Oslo"
  },
  {
    "locode": "NOBGO",
    "name": "Bergen",
    "country": "Norway",
    "country_code": "NO",
    "lat": 60.3913,
    "lng": 5.3221,
    "port_type": "seaport",
    "size": "small",
    "annual_teu": 80000,
    "region": "Europe",
    "timezone": "Europe/Oslo"
  },
  {
    "locode": "NOOSL",
    "name": "Oslo",
    "country": "Norway",
    "country_code": "NO",
    "lat": 59.9139,
    "lng": 10.7522,
    "port_type": "seaport",
    "size": "medium",
    "annual_teu": 200000,
    "region": "Europe",
    "timezone": "Europe/Oslo"
  },